     2.11           OBSERVATION DATA    M                   RINEX VERSION / TYPE
Leica SpiderQC v4.0.0.49 (Free Version) 4/03/16 00:01:07    PGM / RUN BY / DATE
G. Evans            Office of the Surveyor-General (ACT)    OBSERVER / AGENCY
00AA                                                        MARKER NAME
00AA                                                        MARKER NUMBER
470604              LEICA GX1230GG      5.62                REC # / TYPE / VERS
                    LEIAX1202GG     NONE                    ANT # / TYPE
 -4443543.4448  2670408.5438 -3704662.7979                  APPROX POSITION XYZ
        1.3450        0.0000        0.0000                  ANTENNA: DELTA H/E/N
L1PhaOff:   0.0634  L2PhaOff:   0.0621                      COMMENT
     1     1                                                WAVELENGTH FACT L1/2
     6    C1    L1    D1    P2    L2    D2                  # / TYPES OF OBSERV
  2016     3     2     4    36   50.0000000     GPS         TIME OF FIRST OBS
    17                                                      LEAP SECONDS
    45                                                      # OF SATELLITES
          C1    L1    D1    P2    L2    D2                  COMMENT
                                                            END OF HEADER
 16  3  2  4 37  0.0000000  0 15G29G20G21G18G 5G26G15G25G13R 7R 6R22
                                R 5R20R21
  20126564.636   105765810.74049      -363.746    20126565.528    82414921.30048
      -283.440  
  20358598.421   106985157.35549      -716.715    20358598.683    83365058.09548
      -558.484  
  21163591.627   111215426.26748      1860.315    21163591.860    86661371.89846
      1449.598  
  22103141.656   116152793.77848      3384.168    22103143.633    90508679.34746
      2637.015  
  23266619.045   122266906.75448     -2988.218    23266621.074    95272925.59946
     -2328.483  
  22906707.876   120375558.45048      1380.770    22906713.851    93799160.65547
      1075.921  
  23334490.924   122623582.69548      2426.847    23334494.258    95550848.31646
      1891.050  
  23213116.802   121985751.53748     -3524.586    23213123.879    95053857.52845
     -2746.434  
  23573493.876   123879538.96748      1196.824    23573497.065    96529522.13544
       932.593  
  21209979.816   113538681.158 8      3859.597    21209986.212    88307893.528 7
      3001.913  
  19434883.543   103708261.407 9       216.625    19434889.592    80662005.314 6
       168.479  
  21889507.816   116847674.977 8      2849.551    21889515.626    90881563.863 7
      2216.315  
  22285557.287   119129088.311 6     -3544.601    22285565.529    92655969.254 6
     -2756.918  
  21906114.280   117141850.720 6     -2118.210    21906123.084    91110350.601 7
     -1647.496  
  19838118.042   106157774.513 9       420.227    19838123.351    82567182.336 8
       326.844  
 16  3  2  4 37 30.0000000  0 15G29G20G21G18G 5G26G15G25G13R 7R 6R22
                                R 5R20R21
  20128681.666   105776935.59249      -378.226    20128682.496    82423590.02748
      -294.726  
  20362734.603   107006893.17149      -732.555    20362734.897    83381995.10848
      -570.824  
  21152996.892   111159750.99548      1851.144    21152997.038    86617988.59546
      1442.445  
  22083849.020   116051411.28748      3374.347    22083850.799    90429680.10445
      2629.363  
  23283698.721   122356660.74248     -2995.710    23283700.758    95342863.73646
     -2334.320  
  22898876.905   120334406.57547      1362.383    22898882.699    93767094.30347
      1061.594  
  23320656.426   122550882.67148      2419.316    23320659.655    95494199.05346
      1885.183  
  23233252.106   122091562.11747     -3529.624    23233259.035    95136307.18745
     -2750.363  
  23566703.628   123843855.44448      1181.897    23566706.783    96501716.88044
       920.960  
  21188386.841   113423093.338 8      3845.961    21188393.479    88217992.006 7
      2991.308  
  19433741.709   103702168.860 9       189.210    19433747.761    80657266.701 6
       147.163  
  21873495.749   116762202.353 8      2848.500    21873503.550    90815085.218 7
      2215.500  
  22305487.116   119235624.135 5     -3558.324    22305494.814    92738830.417 6
     -2767.590  
  21918024.516   117205540.105 6     -2127.948    21918033.504    91159886.711 7
     -1655.074  
  19835791.855   106145326.772 9       409.539    19835797.225    82557500.768 8
       318.531  
 16  3  2  4 38  0.0000000  0 15G29G20G21G18G 5G26G15G25G13R 7R 6R22
                                R 5R20R21
  20130880.004   105788488.09249      -392.293    20130880.938    82432591.96548
      -305.687  
  20366960.263   107029099.25849      -748.101    20366960.569    83399298.55948
      -582.940  
  21142453.170   111104343.39348      1842.508    21142453.319    86574813.88746
      1435.719  
  22064611.240   115950317.29148      3364.952    22064613.138    90350905.69046
      2622.047  
  23300817.966   122446622.92348     -3002.141    23300820.217    95412964.09146
     -2339.336  
  22891148.578   120293794.85247      1344.633    22891154.182    93735448.84647
      1047.765  
  23306861.794   122478392.32448      2412.688    23306865.311    95437713.17546
      1880.016  
  23253413.620   122197511.36847     -3533.925    23253420.435    95218864.93645
     -2753.707  
  23559996.008   123808608.10148      1167.504    23559999.360    96474251.48144
       909.742  
  21166870.689   113307916.158 8      3832.309    21166877.363    88128409.856 8
      2980.683  
  19432752.483   103696890.064 9       162.402    19432758.493    80653160.995 6
       126.313  
  21857486.957   116676747.583 8      2848.148    21857494.636    90748620.449 7
      2215.227  
  22325491.935   119342561.075 5     -3571.125    22325499.741    92822003.509 6
     -2777.546  
  21929987.844   117269512.397 6     -2137.081    21929996.768    91209642.885 7
     -1662.180  
  19833524.739   106133194.977 9       399.031    19833530.142    82548064.940 8
       310.327  
 16  3  2  4 38 30.0000000  0 15G29G20G21G18G 5G26G15G25G13R 7R 6R22
                                R 5R20R21
  20133159.240   105800465.68249      -406.347    20133160.105    82441925.14948
      -316.636  
  20371274.403   107051770.27749      -763.332    20371274.717    83416964.30448
      -594.808  
  21131959.668   111049200.04648      1833.660    21131959.991    86531845.08846
      1428.824  
  22045428.279   115849510.15148      3355.461    22045430.126    90272354.77846
      2614.644  
  23317975.685   122536786.62448     -3008.742    23317977.838    95483221.49446
     -2344.476  
  22883522.881   120253720.82447      1326.785    22883528.342    93704222.36846
      1033.854  
  23293107.092   122406110.75548      2405.902    23293110.552    95381389.98846
      1874.730  
  23273600.433   122303592.41148     -3538.210    23273607.046    95301525.29745
     -2757.054  
  23553371.445   123773795.10048      1153.078    23553374.709    96447124.54544
       898.503  
  21145431.049   113193149.022 8      3818.793    21145437.852    88039146.649 8
      2970.172  
  19431914.923   103692420.750 9       135.519    19431920.996    80649684.886 6
       105.402  
  21841480.952   116591308.068 7      2847.715    21841489.108    90682167.584 7
      2214.894  
  22345570.519   119449891.051 5     -3584.078    22345577.954    92905482.337 6
     -2787.621  
  21942003.385   117333764.485 6     -2146.484    21942012.224    91259616.663 7
     -1669.492  
  19831316.165   106121376.981 9       388.729    19831321.701    82538873.180 8
       302.348  
 16  3  2  4 39  0.0000000  0 15G29G20G21G18G 5G26G15G25G13R 7R 6R22
                                R 5R20R21
  20135520.640   105812875.04849      -420.414    20135521.522    82451594.78748
      -327.597  
  20375677.907   107074911.03749      -778.726    20375678.221    83434996.07248
      -606.804  
  21121517.839   110994328.14248      1824.875    21121518.165    86489087.80647
      1421.979  
  22026301.594   115748998.30348      3345.965    22026303.371    90194033.94646
      2607.246  
  23335172.410   122627156.08548     -3015.245    23335174.684    95553639.20346
     -2349.546  
  22876000.668   120214191.95148      1308.688    22876006.365    93673420.69546
      1019.758  
  23279393.730   122334046.98748      2398.929    23279397.264    95325236.52446
      1869.301  
  23293813.019   122409808.39648     -3542.425    23293819.462    95384290.85745
     -2760.336  
  23546830.733   123739424.73948      1138.612    23546834.547    96420342.49044
       887.230  
  21124070.028   113078802.681 8      3804.676    21124076.906    87950210.702 7
      2959.190  
  19431230.196   103688767.130 9       108.578    19431236.279    80646843.212 6
        84.449  
  21825479.543   116505891.864 8      2847.305    21825487.634    90615732.833 7
      2214.573  
  22365722.941   119557616.549 6     -3596.968    22365730.282    92989268.772 6
     -2797.640  
  21954072.391   117398302.947 6     -2155.797    21954081.175    91309813.188 7
     -1676.734  
  19829167.849   106109881.129 9       378.237    19829173.337    82529931.967 8
       294.180  
 16  3  2  4 39 30.0000000  0 15G29G20G21G18G 5G26G15G25G13R 7R 6R22
                                R 5R20R21
  20137964.118   105825715.64149      -435.456    20137965.011    82461600.43748
      -339.320  
  20380170.170   107098518.22349      -794.805    20380170.522    83453391.29348
      -619.332  
  21111127.304   110939726.20148      1815.305    21111127.733    86446540.88247
      1414.522  
  22007231.069   115648782.45848      3335.449    22007232.938    90115943.77046
      2599.054  
  23352407.455   122717727.07748     -3022.371    23352409.941    95624213.94946
     -2355.098  
  22868582.020   120175207.66548      1290.179    22868587.999    93643043.35047
      1005.336  
  23265721.948   122262202.28848      2391.108    23265725.358    95269253.73046
      1863.203  
  23314050.026   122516154.48947     -3547.094    23314056.221    95467157.81345
     -2763.973  
  23540374.614   123705497.57348      1123.265    23540378.118    96393905.83644
       875.276  
  21102787.910   112964879.022 8      3790.270    21102795.015    87861603.529 7
      2947.987  
  19430698.028   103685927.195 9        80.906    19430704.073    80644634.391 6
        62.926  
  21809482.233   116420498.355 8      2846.007    21809490.694    90549315.715 7
      2213.563  
  22385948.239   119665731.981 6     -3610.531    22385955.648    93073358.505 6
     -2808.195  
  21966194.543   117463126.105 6     -2165.429    21966203.462    91360231.137 7
     -1684.227  
  19827079.666   106098707.153 9       366.938    19827085.269    82521241.112 8
       285.395  
 16  3  2  4 40  0.0000000  0 15G29G20G21G18G 5G26G15G25G13R 7R 6R22
                                R 5R20R21
  20140489.049   105838984.24349      -449.472    20140490.034    82471939.60548
      -350.242  
  20384750.284   107122587.00849      -810.027    20384750.715    83472146.20048
      -631.195  
  21100787.408   110885390.02548      1806.777    21100787.844    86404201.04747
      1407.879  
  21988216.313   115548860.55548      3325.784    21988218.415    90038082.66846
      2591.520  
  23369679.999   122808493.94048     -3028.722    23369682.158    95694941.35246
     -2360.046  
  22861266.950   120136765.46248      1272.188    22861272.434    93613088.42646
       991.315  
  23252091.747   122190575.44448      2383.831    23252095.210    95213440.70546
      1857.531  
  23334310.498   122622623.95847     -3550.831    23334316.810    95550120.85345
     -2766.887  
  23534002.656   123672012.05248      1108.796    23534005.951    96367813.25144
       863.996  
  21081584.767   112851377.907 8      3776.266    21081591.919    87773324.985 8
      2937.094  
  19430317.594   103683897.189 9        54.112    19430323.612    80643055.523 6
        42.090  
  21793489.035   116335125.579 7      2845.246    21793497.656    90482914.737 7
      2212.969  
  22406245.024   119774229.307 5     -3622.687    22406252.321    93157745.270 6
     -2817.647  
  21978369.636   117528230.986 6     -2174.882    21978378.701    91410868.192 7
     -1691.578  
  19825051.310   106087853.197 9       356.313    19825056.770    82512799.155 8
       277.117  
 16  3  2  4 40 30.0000000  0 15G29G20G21G18G 5G26G15G25G13R 7R 6R22
                                R 5R20R21
  20143096.453   105852686.40349      -463.953    20143097.430    82482616.61248
      -361.522  
  20389418.877   107147120.59849      -825.437    20389419.266    83491263.29248
      -643.202  
  21090499.069   110831324.87748      1797.609    21090499.566    86362072.39447
      1400.730  
  21969258.797   115449239.04248      3315.699    21969260.781    89960455.60446
      2583.659  
  23386990.185   122899458.20548     -3035.386    23386992.448    95765822.53246
     -2365.241  
  22854055.884   120098871.08147      1253.847    22854060.982    93583560.36447
       977.023  
  23238504.436   122119174.13948      2376.284    23238507.845    95157803.43546
      1851.651  
  23354594.905   122729218.23648     -3555.266    23354600.876    95633181.17846
     -2770.344  
  23527715.693   123638974.77348      1093.789    23527718.900    96342069.98744
       852.305  
  21060462.194   112738308.434 8      3761.766    21060469.360    87685382.189 8
      2925.819  
  19430089.663   103682680.777 9        26.941    19430095.566    80642109.452 6
        20.953  
  21777500.670   116249779.476 7      2844.516    21777509.386    90416534.522 7
      2212.402  
  22426613.244   119883109.302 5     -3635.504    22426620.803    93242429.654 6
     -2827.617  
  21990598.259   117593622.274 6     -2184.590    21990607.553    91461728.014 7
     -1699.129  
  19823084.021   106077325.585 9       345.414    19823089.558    82504611.030 8
       268.675  
 16  3  2  4 41  0.0000000  0 15G29G20G21G18G 5G26G15G25G13R 7R 6R22
                                R 5R20R21
  20145786.461   105866822.36649      -478.430    20145787.428    82493631.64448
      -372.800  
  20394175.453   107172116.60749      -840.796    20394175.842    83510740.70948
      -655.172  
  21080262.353   110777530.69448      1788.555    21080262.891    86320154.88747
      1393.679  
  21950359.124   115349920.21248      3305.719    21950360.819    89883064.39046
      2575.882  
  23404337.351   122990617.77248     -3041.894    23404339.499    95836855.93246
     -2370.312  
  22846949.195   120061525.08848      1235.479    22846954.372    93554459.63846
       962.714  
  23224960.290   122048000.27048      2368.679    23224963.943    95102343.38946
      1845.722  
  23374902.342   122835933.75947     -3559.198    23374908.587    95716335.98545
     -2773.410  
  23521514.450   123606387.30248      1078.612    23521517.652    96316677.22545
       840.476  
  21039420.977   112625673.556 8      3747.093    21039428.257    87597777.381 8
      2914.405  
  19430014.041   103682277.528 9        -0.015    19430020.024    80641795.832 6
        -0.007  
  21761517.810   116164461.571 8      2843.190    21761526.524    90350176.200 7
      2211.370  
  22447052.217   119992367.265 6     -3648.344    22447060.182    93327408.023 6
     -2837.604  
  22002880.622   117659299.931 6     -2194.030    22002889.538    91512810.571 7
     -1706.472  
  19821177.905   106067125.635 9       334.527    19821183.359    82496677.747 8
       260.183  
 16  3  2  4 41 30.0000000  0 15G29G20G21G18G 5G26G15G25G13R 7R 6R22
                                R 5R20R21
  20148558.771   105881390.91849      -492.645    20148559.738    82504983.75748
      -383.882  
  20399019.393   107197571.74649      -856.000    20399019.790    83530575.89748
      -667.011  
  21070076.932   110724005.91848      1779.757    21070077.388    86278447.30146
      1386.823  
  21931516.863   115250903.65148      3295.737    21931518.654    89805908.74746
      2568.112  
  23421720.762   123081967.59148     -3048.027    23421722.942    95908037.53846
     -2375.089  
  22839946.576   120024726.48048      1217.602    22839951.945    93525785.43346
       948.781  
  23211459.685   121977054.29648      2361.194    23211463.166    95047060.90246
      1839.890  
  23395231.504   122942765.22647     -3562.793    23395238.280    95799581.11946
     -2776.210  
  23515398.791   123574249.42148      1064.098    23515401.845    96291634.76844
       829.163  
  21018461.345   112513475.193 8      3732.776    21018468.587    87510512.091 8
      2903.270  
  19430090.355   103682684.753 9       -27.042    19430096.321    80642112.588 6
       -21.034  
  21745539.858   116079170.708 8      2842.625    21745548.674    90283838.938 8
      2210.929  
  22467560.811   120101997.109 6     -3660.828    22467568.646    93412675.657 6
     -2847.313  
  22015215.847   117725261.548 6     -2202.987    22015224.404    91564113.974 7
     -1713.437  
  19819332.886   106057252.848 9       323.655    19819338.329    82488998.926 8
       251.733  
 16  3  2  4 42  0.0000000  0 15G29G20G21G18G 5G26G15G25G13R 7R 6R22
                                R 5R20R21
  20151414.043   105896395.47649      -507.397    20151415.041    82516675.62148
      -395.374  
  20403950.962   107223487.44449      -871.500    20403951.385    83550769.95348
      -679.090  
  21059943.301   110670753.51448      1770.491    21059943.727    86236951.96546
      1379.601  
  21912732.871   115152194.23348      3285.250    21912734.593    89728992.41046
      2559.933  
  23439140.510   123173508.63948     -3054.426    23439142.493    95979368.18746
     -2380.070  
  22833049.113   119988479.25448      1199.026    22833054.525    93497540.87047
       934.308  
  23198003.609   121906342.23448      2353.340    23198007.128    94991960.71046
      1833.772  
  23415583.011   123049712.52047     -3566.479    23415589.663    95882916.53546
     -2779.082  
  23509369.685   123542566.19548      1048.566    23509372.381    96266946.61945
       817.066  
  20997584.508   112401720.165 8      3717.809    20997591.463    87423591.635 8
      2891.632  
  19430318.898   103683904.583 9       -54.206    19430324.861    80643061.364 6
       -42.159  
  21729567.770   115993911.684 7      2841.632    21729576.793    90217526.454 7
      2210.160  
  22488138.625   120211997.316 5     -3672.722    22488146.381    93498231.329 6
     -2856.565  
  22027604.961   117791511.111 6     -2213.397    22027613.691    91615641.343 7
     -1721.534  
  19817549.945   106047711.971 9       312.608    19817555.466    82481578.257 8
       243.140  
 16  3  2  4 42 30.0000000  0 15G29G20G21G18G 5G26G15G25G13R 7R 6R22
                                R 5R20R21
  20154352.511   105911837.25949      -522.237    20154353.437    82528708.17548
      -406.941  
  20408970.005   107249862.41149      -886.917    20408970.286    83571321.88848
      -691.104  
  21049861.784   110617774.53149      1761.237    21049861.986    86195669.67246
      1372.395  
  21894008.084   115053794.56448      3274.625    21894009.553    89652317.43745
      2551.655  
  23456596.139   123265238.49648     -3060.854    23456598.152    96050845.94446
     -2385.090  
  22826256.558   119952784.70248      1180.495    22826261.995    93469726.97046
       919.866  
  23184592.558   121835867.15648      2345.026    23184595.939    94937045.16246
      1827.292  
  23435955.958   123156772.83347     -3570.538    23435962.969    95966339.97245
     -2782.246  
  23503427.410   123511339.48548      1033.129    23503430.375    96242614.16244
       805.035  
  20976791.244   112290412.318 8      3702.597    20976798.067    87337018.973 8
      2879.801  
  19430699.712   103685936.836 9       -81.512    19430705.741    80644642.032 6
       -63.398  
  21713602.432   115908686.623 7      2840.098    21713611.021    90151240.336 7
      2208.965  
  22508785.090   120322364.569 6     -3685.141    22508792.944    93584072.478 5
     -2866.218  
  22040047.590   117858048.475 6     -2223.246    22040056.456    91667392.547 7
     -1729.194  
  19815829.382   106038504.952 9       301.190    19815834.894    82474417.253 8
       234.261  
 16  3  2  4 43  0.0000000  0 15G29G20G21G18G 5G26G15G25G13R 7R 6R22
                                R 5R20R21
  20157373.284   105927711.46949      -536.574    20157374.199    82541077.69148
      -418.109  
  20414075.086   107276689.69949      -902.007    20414075.305    83592226.27448
      -702.866  
  21039831.287   110565063.85148      1752.344    21039831.404    86154596.45846
      1365.460  
  21875341.459   114955701.19448      3264.440    21875342.890    89575881.13446
      2543.718  
  23474086.160   123357149.23848     -3066.733    23474088.307    96122464.63946
     -2389.667  
  22819568.531   119917638.57048      1162.245    22819573.845    93442340.39446
       905.640  
  23171226.237   121765626.38348      2337.324    23171229.389    94882312.18946
      1821.293  
  23456349.044   123263937.68747     -3574.101    23456356.052    96049844.89645
     -2785.022  
  23497571.500   123480566.12848      1017.914    23497574.625    96218634.99844
       793.179  
  20956081.282   112179550.084 8      3687.706    20956088.157    87250792.902 8
      2868.219  
  19431231.698   103688775.708 9      -108.339    19431237.695    80646850.058 6
       -84.266  
  21697642.257   115823491.282 7      2839.034    21697651.096    90084977.368 8
      2208.137  
  22529498.471   120433089.239 5     -3696.733    22529506.387    93670191.594 5
     -2875.241  
  22052543.428   117924868.770 6     -2232.133    22052552.225    91719363.822 7
     -1736.102  
  19814170.618   106029628.199 9       290.105    19814176.049    82467513.127 8
       225.633  
 16  3  2  4 43 30.0000000  0 15G29G20G21G18G 5G26G15G25G13R 7R 6R22
                                R 5R20R21
  20160477.894   105944026.27449      -550.891    20160478.697    82553790.52848
      -429.265  
  20419267.369   107303975.45449      -916.813    20419267.607    83613487.91548
      -714.397  
  21029853.207   110512628.96948      1743.605    21029853.522    86113738.13847
      1358.648  
  21856734.916   114857923.96048      3254.398    21856736.555    89499691.18046
      2535.894  
  23491611.633   123449246.40548     -3072.437    23491613.722    96194228.62946
     -2394.108  
  22812986.508   119883049.37048      1143.891    22812991.622    93415387.79446
       891.343  
  23157906.150   121695629.97948      2329.409    23157909.450    94827769.63746
      1815.125  
  23476762.764   123371211.51047     -3577.144    23476769.806    96133434.71146
     -2787.394  
  23491803.642   123450255.70448      1002.839    23491806.847    96195016.53944
       781.433  
  20935456.577   112069144.922 8      3672.727    20935463.368    87164922.325 8
      2856.566  
  19431916.208   103692428.044 9      -135.070    19431922.139    80649690.783 6
      -105.058  
  21681689.598   115738335.434 8      2838.121    21681698.401    90018745.138 7
      2207.425  
  22550279.358   120544174.774 5     -3708.132    22550287.001    93756591.427 5
     -2884.105  
  22065093.906   117991979.852 6     -2241.706    22065102.704    91771561.265 7
     -1743.550  
  19812575.238   106021090.936 9       279.145    19812580.525    82460873.044 8
       217.112  
 16  3  2  4 44  0.0000000  0 15G29G20G21G18G 5G26G15G25G13R 7R 6R22
                                R 5R20R21
  20163665.974   105960779.39949      -565.402    20163666.741    82566844.90848
      -440.574  
  20424546.010   107331714.71349      -931.719    20424546.244    83635102.92848
      -726.015  
  21019927.187   110460467.26148      1734.402    21019927.567    86073092.69647
      1351.479  
  21838188.479   114760461.71648      3243.887    21838190.005    89423746.65646
      2527.702  
  23509171.716   123541524.70748     -3078.715    23509174.010    96266133.73246
     -2399.004  
  22806509.897   119849014.79748      1125.383    22806515.069    93388867.36146
       876.918  
  23144632.620   121625877.76248      2321.354    23144636.192    94773417.36547
      1808.848  
  23497196.247   123478588.12747     -3580.625    23497203.162    96217104.63845
     -2790.105  
  23486123.478   123420407.14648       987.651    23486126.697    96171757.99344
       769.594  
  20914917.357   111959197.523 8      3657.757    20914923.765    87079407.796 7
      2844.922  
  19432752.357   103696889.958 9      -161.796    19432758.254    80653161.189 6
      -125.844  
  21665744.105   115653217.031 8      2837.105    21665752.801    89952541.989 7
      2206.636  
  22571126.405   120655614.217 5     -3720.050    22571134.428    93843266.482 6
     -2893.375  
  22077697.607   118059378.441 6     -2251.315    22077706.573    91823982.302 7
     -1751.027  
  19811043.072   106012891.850 9       267.983    19811048.438    82454495.987 8
       208.433  
 16  3  2  4 44 30.0000000  0 15G29G20G21G18G 5G26G15G25G13R 7R 6R22
                                R 5R20R21
  20166937.004   105977968.90749      -580.499    20166937.810    82580239.32748
      -452.336  
  20429910.127   107359903.46249      -947.276    20429910.394    83657068.19348
      -738.137  
  21010052.629   110408576.29148      1724.988    21010052.932    86032658.21647
      1344.148  
  21819701.768   114663313.89448      3232.714    21819703.304    89348047.14446
      2518.999  
  23526765.258   123633979.14348     -3085.074    23526767.301    96338176.09646
     -2403.957  
  22800138.591   119815533.29748      1106.668    22800143.809    93362777.92746
       862.339  
  23131405.632   121556369.68948      2312.535    23131409.154    94719255.32746
      1801.976  
  23517647.967   123586061.67547     -3584.273    23517655.096    96300850.08045
     -2792.948  
  23480531.007   123391019.20248       971.727    23480534.554    96148858.35344
       757.191  
  20894463.838   111849708.922 8      3641.702    20894470.399    86994250.099 8
      2832.437  
  19433739.539   103702157.934 9      -189.327    19433745.519    80657258.519 6
      -147.253  
  21649805.532   115568135.187 8      2835.421    21649814.000    89886367.287 7
      2205.327  
  22592038.193   120767400.615 5     -3732.383    22592046.231    93930211.407 5
     -2902.969  
  22090354.955   118127062.404 6     -2261.136    22090363.791    91876625.311 7
     -1758.663  
  19809573.891   106005029.934 9       256.159    19809579.237    82448381.170 8
       199.233  
 16  3  2  4 45  0.0000000  0 15G29G20G21G18G 5G26G15G25G13R 7R 6R22
                                R 5R20R21
  20170292.052   105995599.71049      -595.273    20170292.902    82593977.61848
      -463.852  
  20435360.328   107388544.87049      -962.414    20435360.638    83679386.18748
      -749.937  
  21000230.466   110356960.98048      1715.698    21000230.713    85992438.52946
      1336.910  
  21801276.161   114566486.92648      3221.977    21801277.644    89272597.64745
      2510.633  
  23544392.678   123726612.48648     -3090.785    23544395.068    96410357.85746
     -2408.406  
  22793873.371   119782610.22048      1087.809    22793878.562    93337123.60146
       847.644  
  23118226.422   121487112.94448      2304.022    23118229.819    94665289.12146
      1795.344  
  23538118.406   123693633.65147     -3587.495    23538125.318    96384672.24545
     -2795.461  
  23475027.454   123362098.58548       956.074    23475030.809    96126322.87344
       744.992  
  20874097.643   111740687.370 8      3626.063    20874104.427    86909455.670 8
      2820.273  
  19434878.413   103708235.686 9      -216.352    19434884.388    80661985.685 6
      -168.273  
  21633874.981   115483096.265 8      2833.647    21633882.880    89820225.944 7
      2203.949  
  22613015.234   120879534.326 5     -3743.152    22613022.979    94017426.511 6
     -2911.344  
  22103066.516   118195036.243 6     -2270.694    22103075.484    91929493.770 7
     -1766.101  
  19808168.859   105997511.574 9       244.757    19808174.306    82442533.565 8
       190.362  
 16  3  2  4 45 30.0000000  0 15G29G20G21G18G 5G26G15G25G13R 7R 6R22
                                R 5R20R21
  20173730.820   106013670.80749      -610.272    20173731.678    82608058.98748
      -475.538  
  20440896.038   107417635.40949      -977.644    20440896.423    83702054.14748
      -761.801  
  20990460.595   110305620.08648      1706.366    20990460.776    85952432.67546
      1329.637  
  21782911.743   114469981.19548      3210.976    21782913.134    89197398.45446
      2502.058  
  23562053.198   123819419.14548     -3096.886    23562055.493    96482674.68746
     -2413.164  
  22787714.509   119750244.77148      1068.938    22787719.551    93311903.79146
       832.938  
  23105095.378   121418108.52648      2295.406    23105098.664    94611519.54947
      1788.629  
  23558606.485   123801299.26147     -3590.683    23558613.619    96468567.35046
     -2797.941  
  23469613.037   123333645.44448       940.062    23469616.071    96104151.67744
       732.516  
  20853819.102   111632134.999 8      3609.940    20853825.733    86825026.160 8
      2807.729  
  19436168.739   103715120.892 9      -243.484    19436174.769    80667340.870 6
      -189.375  
  21617952.377   115398100.038 8      2831.965    21617960.216    89754117.834 7
      2202.641  
  22634056.041   120992009.908 5     -3755.429    22634063.892    94104907.423 5
     -2920.894  
  22115832.044   118263298.599 6     -2280.879    22115840.998    91982586.634 7
     -1774.022  
  19806828.015   105990336.541 9       232.832    19806833.377    82436952.992 8
       181.089  
 16  3  2  4 46  0.0000000  0 15G29G20G21G18G 5G26G15G25G13R 7R 6R22
                                R 5R20R21
  20177253.282   106032181.55949      -624.468    20177254.225    82622482.94848
      -486.601  
  20446516.659   107447171.84649      -992.163    20446516.991    83725069.55648
      -773.117  
  20980742.706   110254552.45049      1697.565    20980742.877    85912639.75446
      1322.776  
  21764608.547   114373797.06349      3200.710    21764610.053    89122449.86746
      2494.059  
  23579746.239   123912396.01148     -3102.233    23579748.615    96555124.15846
     -2417.328  
  22781661.574   119718436.41648      1050.796    22781666.776    93287118.09546
       818.801  
  23092012.578   121349357.70048      2287.301    23092015.648    94557947.56547
      1782.312  
  23579111.797   123909053.96747     -3593.479    23579118.636    96552531.90445
     -2800.121  
  23464287.802   123305660.33048       924.800    23464290.817    96082345.15044
       720.624  
  20833628.499   111524053.686 8      3594.671    20833635.196    86740963.029 7
      2795.855  
  19437609.826   103722810.656 9      -269.867    19437615.809    80673321.815 6
      -209.898  
  21602037.749   115313146.676 8      2830.945    21602045.436    89688043.053 7
      2201.848  
  22655160.080   121104821.712 5     -3766.370    22655167.846    94192649.905 6
     -2929.397  
  22128651.206   118331848.202 6     -2290.116    22128660.272    92035902.910 7
     -1781.207  
  19805551.407   105983505.371 9       221.769    19805556.864    82431639.868 8
       172.487  
 16  3  2  4 46 30.0000000  0 15G29G20G21G18G 5G26G15G25G13R 7R 6R22
                                R 5R20R21
  20180860.011   106051134.95749      -639.147    20180860.935    82637251.82448
      -498.043  
  20452222.352   107477155.49849     -1006.848    20452222.662    83748433.44948
      -784.559  
  20971077.410   110203760.85549      1688.444    20971077.657    85873061.92146
      1315.671  
  21746367.281   114277939.12448      3189.855    21746368.740    89047755.45946
      2485.601  
  23597471.590   124005543.54948     -3107.675    23597474.028    96627706.60546
     -2421.566  
  22775715.277   119687188.47548      1032.055    22775720.463    93262769.06646
       804.198  
  23078978.929   121280865.69148      2278.679    23078982.091    94504577.26846
      1775.594  
  23599633.679   124016897.18347     -3596.085    23599640.790    96636565.38245
     -2802.151  
  23459052.183   123278146.99848       909.202    23459054.947    96060906.26245
       708.468  
  20813527.183   111416450.109 8      3578.926    20813533.920    86657271.449 7
      2783.608  
  19439202.102   103731307.249 9      -296.734    19439208.067    80679930.308 6
      -230.792  
  21586132.028   115228240.573 8      2829.438    21586139.750    89622005.023 7
      2200.672  
  22676326.584   121217968.121 5     -3777.175    22676334.295    94280652.600 6
     -2937.805  
  22141524.598   118400687.609 6     -2299.175    22141533.555    92089444.593 7
     -1788.253  
  19804339.823   105977022.063 9       210.229    19804345.175    82426597.296 8
       163.512  
 16  3  2  4 47  0.0000000  0 15G29G20G21G18G 5G26G15G25G13R 7R 6R22
                                R 5R20R21
  20184550.826   106070530.22749      -654.140    20184551.756    82652365.02448
      -509.722  
  20458012.576   107507583.33049     -1021.979    20458012.909    83772143.45248
      -796.352  
  20961464.414   110153244.28048      1679.043    20961464.616    85833698.40446
      1308.343  
  21728188.207   114182408.16549      3178.559    21728189.681    88973315.84446
      2476.800  
  23615228.676   124098858.04048     -3113.594    23615231.260    96700419.12646
     -2426.180  
  22769875.682   119656500.60648      1013.354    22769880.778    93238856.46846
       789.629  
  23065994.698   121212634.00548      2269.772    23065997.973    94451409.82046
      1768.659  
  23620171.536   124124824.63547     -3599.281    23620178.843    96720664.52645
     -2804.645  
  23453906.515   123251106.49048       893.137    23453909.309    96039835.79745
       695.948  
  20793515.546   111309326.816 8      3562.362    20793521.942    86573953.442 7
      2770.730  
  19440945.038   103740607.859 9      -323.597    19440950.993    80687164.132 6
      -251.688  
  21570234.993   115143382.217 8      2827.582    21570242.721    89556004.131 7
      2199.230  
  22697554.897   121331443.903 5     -3788.870    22697562.547    94368911.465 6
     -2946.897  
  22154451.857   118469815.818 6     -2309.199    22154460.879    92143210.888 7
     -1796.050  
  19803193.431   105970887.302 9       198.438    19803198.771    82421825.816 8
       154.300  
 16  3  2  4 47 30.0000000  0 15G29G20G21G18G 5G26G15G25G13R 7R 6R22
                                R 5R20R21
  20188325.989   106090368.96849      -668.648    20188326.889    82667823.78048
      -521.026  
  20463887.189   107538454.31349     -1036.461    20463887.411    83796198.77248
      -807.637  
  20951903.923   110103004.28148      1669.887    20951904.111    85794550.39046
      1301.211  
  21710072.004   114087207.03348      3167.808    21710073.420    88899133.22146
      2468.422  
  23633017.385   124192338.14848     -3118.839    23633019.632    96773260.72246
     -2430.265  
  22764142.731   119626374.33648       994.754    22764147.702    93215381.47946
       775.132  
  23053060.641   121144666.26748      2260.905    23053063.942    94398448.05946
      1761.745  
  23640725.014   124232834.01147     -3601.737    23640732.220    96804827.51446
     -2806.558  
  23448851.040   123224541.16448       877.285    23448853.882    96019135.60644
       683.597  
  20773594.476   111202687.956 8      3546.464    20773600.780    86491012.200 8
      2758.362  
  19442838.639   103750712.696 9      -350.409    19442844.701    80695023.471 6
      -272.542  
  21554347.407   115058574.235 8      2825.960    21554355.492    89490042.422 7
      2197.969  
  22718844.201   121445245.961 6     -3798.667    22718851.546    94457424.118 6
     -2954.523  
  22167433.449   118539233.848 6     -2318.593    22167442.576    92197202.606 7
     -1803.359  
  19802112.580   105965103.478 9       186.770    19802117.957    82417327.293 8
       145.265  
 16  3  2  4 48  0.0000000  0 15G29G20G21G18G 5G26G15G25G13R 7R 6R22
                                R 5R20R21
  20192185.224   106110649.51049      -683.398    20192186.246    82683626.79648
      -532.523  
  20469845.290   107569764.65849     -1050.984    20469845.535    83820596.45348
      -818.948  
  20942395.632   110053038.49948      1660.870    20942395.965    85755616.06146
      1294.184  
  21692018.503   113992335.42949      3156.854    21692019.912    88825207.37446
      2459.886  
  23650836.790   124285978.94548     -3124.016    23650839.001    96846227.52946
     -2434.301  
  22758516.533   119596808.18548       976.269    22758521.446    93192342.93346
       760.730  
  23040177.071   121076962.52348      2252.426    23040180.105    94345691.96446
      1755.137  
  23661293.027   124340919.93347     -3604.156    23661300.718    96889050.10746
     -2808.441  
  23443886.116   123198450.71948       861.632    23443888.999    95998805.46244
       671.401  
  20753763.991   111096534.720 8      3530.265    20753770.781    86408448.676 8
      2745.761  
  19444882.426   103761618.857 9      -376.979    19444888.432    80703506.060 6
      -293.211  
  21538469.266   114973815.642 8      2824.332    21538477.586    89424119.138 7
      2196.702  
  22740193.033   121559367.611 5     -3809.559    22740200.506    94546185.346 6
     -2962.991  
  22180468.817   118608939.286 6     -2328.430    22180477.909    92251417.901 7
     -1811.004  
  19801097.285   105959669.966 9       175.316    19801102.673    82413101.225 8
       136.351  
 16  3  2  4 48 30.0000000  0 15G29G20G21G18G 5G26G15G25G13R 7R 6R22
                                R 5R20R21
  20196129.256   106131375.63149      -697.995    20196130.218    82699777.01448
      -543.897  
  20475887.365   107601516.10149     -1065.472    20475887.704    83845337.84148
      -830.241  
  20932940.403   110003350.59249      1651.953    20932940.449    85716898.24246
      1287.233  
  21674028.714   113897798.60949      3145.843    21674030.144    88751542.40646
      2451.308  
  23668687.051   124379781.75848     -3129.394    23668689.234    96919320.59345
     -2438.487  
  22752997.661   119567806.22648       957.616    22753002.276    93169744.01246
       746.191  
  23027344.797   121009528.59048      2243.577    23027347.754    94293146.13447
      1748.242  
  23681875.825   124449082.67547     -3606.492    23681883.440    96973332.56745
     -2810.262  
  23439012.757   123172840.17048       845.897    23439015.894    95978849.25344
       659.140  
  20734025.690   110990874.677 8      3514.093    20734032.487    86326268.745 8
      2733.184  
  19447076.716   103773327.853 9      -403.395    19447082.639    80712613.081 6
      -313.750  
  21522601.290   114889111.747 8      2822.727    21522609.565    89358238.396 7
      2195.452  
  22761601.520   121673808.429 5     -3820.034    22761609.151    94635194.824 6
     -2971.136  
  22193558.528   118678935.667 6     -2337.875    22193567.659    92305859.434 7
     -1818.352  
  19800148.349   105954591.796 9       163.558    19800153.668    82409151.547 8
       127.211  
 16  3  2  4 49  0.0000000  0 15G29G20G21G18G 5G26G15G25G13R 7R 6R22
                                R 5R20R21
  20200157.956   106152546.52949      -713.391    20200158.959    82716273.81648
      -555.895  
  20482012.773   107633705.08749     -1080.487    20482013.006    83870420.18148
      -841.938  
  20923537.673   109953939.25648      1642.190    20923537.780    85678395.94646
      1279.628  
  21656102.545   113803596.76749      3134.175    21656104.143    88678138.46146
      2442.215  
  23686567.268   124473742.90648     -3134.777    23686569.335    96992537.02345
     -2442.691  
  22747585.772   119539367.55648       938.448    22747590.636    93147584.03046
       731.253  
  23014564.072   120942365.95948      2233.987    23014567.222    94240811.71146
      1740.770  
  23702472.571   124557317.52547     -3609.171    23702480.187    97057671.24245
     -2812.352  
  23434230.487   123147709.60748       829.641    23434233.190    95959267.03844
       646.473  
  20714379.887   110885709.278 8      3496.922    20714386.369    86244473.526 8
      2719.828  
  19449420.934   103785837.023 9      -430.616    19449426.795    80722342.449 6
      -334.930  
  21506743.748   114804462.860 8      2820.289    21506752.100    89292400.419 7
      2193.558  
  22783068.687   121788562.680 6     -3830.609    22783076.270    94724448.072 6
     -2979.367  
  22206702.368   118749221.279 6     -2348.109    22206711.500    92360525.934 7
     -1826.315  
  19799265.778   105949869.135 9       151.188    19799271.073    82405478.367 8
       117.585  
 16  3  2  4 49 30.0000000  0 15G29G20G21G18G 5G26G15G25G13R 7R 6R22
                                R 5R20R21
  20204270.825   106174159.86449      -727.629    20204271.754    82733115.36848
      -566.987  
  20488220.643   107666327.88649     -1094.613    20488220.896    83895840.54548
      -852.945  
  20914187.228   109904802.36948      1633.343    20914187.373    85640107.49747
      1272.733  
  21638240.031   113709729.56049      3123.395    21638241.786    88604995.28246
      2433.813  
  23704476.533   124567857.06748     -3139.570    23704478.596    97065872.67345
     -2446.422  
  22742280.976   119511490.57348       919.840    22742285.763    93125861.71546
       716.753  
  23001835.016   120875474.82048      2225.315    23001838.063    94188688.83747
      1734.015  
  23723082.007   124665619.12047     -3610.973    23723089.469    97142061.93245
     -2813.754  
  23429539.525   123123058.30948       814.102    23429542.363    95940058.29045
       634.358  
  20694826.808   110781040.052 8      3480.703    20694833.370    86163064.229 8
      2707.215  
  19451914.402   103799143.081 9      -456.741    19451920.395    80732691.626 6
      -355.242  
  21490896.145   114719868.123 8      2819.253    21490904.729    89226604.569 7
      2192.754  
  22804593.298   121903623.809 6     -3840.090    22804601.034    94813939.984 6
     -2986.746  
  22219899.917   118819793.941 6     -2357.194    22219909.000    92415415.703 7
     -1833.379  
  19798449.464   105945501.220 9       139.753    19798454.863    82402081.107 8
       108.695  
 16  3  2  4 50  0.0000000  0 15G29G20G21G18G 5G26G15G25G13R 7R 6R22
                                R 5R20R21
  20208468.370   106196217.95749      -742.617    20208469.345    82750303.49048
      -578.668  
  20494511.049   107699384.50549     -1109.015    20494511.440    83921598.95948
      -864.171  
  20904889.410   109855942.25248      1624.089    20904889.566    85602034.72047
      1265.520  
  21620442.143   113616200.99849      3111.999    21620443.723    88532115.97046
      2424.933  
  23722415.188   124662124.49448     -3144.617    23722417.090    97139327.77745
     -2450.355  
  22737083.536   119484177.62348       901.124    22737088.185    93104578.93646
       702.176  
  22989158.471   120808859.59648      2215.914    22989161.530    94136780.95846
      1726.687  
  23743703.640   124773986.12647     -3613.441    23743711.015    97226503.55945
     -2815.679  
  23424940.270   123098889.87348       797.542    23424942.982    95921225.81245
       621.460  
  20675367.434   110676872.249 8      3463.862    20675373.768    86082044.919 8
      2694.117  
  19454557.241   103813246.215 9      -483.405    19454563.079    80743660.748 6
      -375.983  
  21475059.517   114635331.404 8      2816.855    21475067.809    89160853.831 7
      2190.886  
  22826174.832   122018989.603 5     -3850.284    22826182.881    94903668.890 6
     -2994.671  
  22233150.979   118890655.637 6     -2366.965    22233160.602    92470530.275 7
     -1840.976  
  19797700.144   105941491.519 9       127.683    19797705.525    82398962.453 8
        99.250  
 16  3  2  4 50 30.0000000  0 15G29G20G21G18G 5G26G15G25G13R 7R 6R22
                                R 5R20R21
  20212751.462   106218725.53949      -757.534    20212752.493    82767841.86048
      -590.293  
  20500884.459   107732877.06149     -1123.453    20500884.824    83947697.05648
      -875.418  
  20895645.034   109807362.98248      1614.910    20895645.324    85564180.78247
      1258.370  
  21602709.742   113523017.00348      3100.640    21602711.212    88459505.14647
      2416.082  
  23740383.058   124756546.09948     -3149.684    23740385.222    97212902.99246
     -2454.305  
  22731994.127   119457433.43948       882.089    22731998.973    93083739.30846
       687.339  
  22976535.724   120742527.08248      2206.538    22976538.751    94085093.38347
      1719.386  
  23764338.239   124882419.36747     -3615.230    23764345.447    97310996.82545
     -2817.069  
  23420433.991   123075209.77948       781.461    23420437.104    95902773.83945
       608.929  
  20656003.105   110573213.667 8      3446.813    20656009.265    86001421.675 8
      2680.855  
  19457350.002   103828149.140 9      -509.805    19457356.006    80755251.930 6
      -396.515  
  21459234.798   114550858.448 8      2814.894    21459243.279    89095152.718 7
      2189.366  
  22847813.482   122134660.212 6     -3860.438    22847821.631    94993634.845 6
     -3002.565  
  22246457.338   118961810.409 6     -2376.648    22246466.844    92525872.783 7
     -1848.512  
  19797018.857   105937845.878 9       115.566    19797024.290    82396126.965 8
        89.886  
 16  3  2  4 51  0.0000000  0 15G29G20G21G18G 5G26G15G25G13R 7R 6R22
                                R 5R20R21
  20217119.272   106241678.50449      -772.434    20217120.303    82785727.28048
      -601.898  
  20507339.661   107766799.40949     -1137.858    20507339.963    83974130.05548
      -886.648  
  20886453.405   109759060.51949      1605.578    20886453.627    85526542.53947
      1251.101  
  21585042.183   113430174.66849      3089.132    21585043.861    88387160.57646
      2407.116  
  23758379.021   124851115.21248     -3154.519    23758381.007    97286593.15945
     -2458.070  
  22727012.532   119431254.10648       863.249    22727017.300    93063339.84546
       672.664  
  22963966.347   120676475.12348      2197.086    22963969.217    94033624.39946
      1712.016  
  23784983.716   124990911.45447     -3617.313    23784990.695    97395535.91545
     -2818.690  
  23416020.059   123052015.00348       765.113    23416023.075    95884700.06644
       596.190  
  20636733.660   110470063.322 8      3429.949    20636740.088    85921193.728 8
      2667.738  
  19460291.707   103843846.487 9      -536.444    19460297.570    80767460.984 6
      -417.203  
  21443421.473   114466446.475 8      2812.887    21443430.109    89029499.023 7
      2187.801  
  22869507.322   122250626.971 5     -3870.508    22869515.664    95083831.121 5
     -3010.401  
  22259817.608   119033253.619 6     -2386.093    22259827.424    92581439.639 7
     -1855.854  
  19796405.105   105934561.377 9       103.542    19796410.391    82393572.358 8
        80.487  
 16  3  2  4 51 30.0000000  0 15G29G20G21G18G 5G26G15G25G13R 7R 6R22
                                R 5R20R21
  20221572.700   106265081.45849      -787.374    20221573.697    82803963.33848
      -613.543  
  20513877.156   107801154.11449     -1152.141    20513877.501    84000899.96148
      -897.772  
  20877315.310   109711039.28849      1596.273    20877315.420    85489123.42246
      1243.843  
  21567441.023   113337679.76349      3077.629    21567442.417    88315086.70046
      2398.152  
  23776402.979   124945833.97048     -3159.188    23776405.348    97360399.91845
     -2461.707  
  22722139.115   119405644.25048       844.515    22722144.100    93043384.12546
       658.062  
  22951451.710   120610710.32148      2187.538    22951454.598    93982379.18946
      1704.578  
  23805640.560   125099463.21347     -3618.992    23805647.637    97480121.51445
     -2820.004  
  23411699.663   123029311.17048       748.800    23411702.579    95867008.82844
       583.479  
  20617560.654   110367428.657 8      3412.816    20617566.912    85841366.859 8
      2654.414  
  19463382.743   103860340.844 9      -562.866    19463388.611    80780289.949 6
      -437.819  
  21427620.786   114382101.363 8      2810.758    21427628.993    88963897.307 7
      2186.145  
  22891256.451   122366889.563 5     -3880.316    22891264.883    95174257.558 6
     -3018.027  
  22273232.838   119104989.572 6     -2395.976    22273242.381    92637234.183 7
     -1863.543  
  19795859.846   105931643.617 9        91.327    19795865.057    82391302.999 8
        71.026  
 16  3  2  4 52  0.0000000  0 15G29G20G21G18G 5G26G15G25G13R 7R 6R22
                                R 5R20R21
  20226111.157   106288931.17849      -802.421    20226112.100    82822547.52948
      -625.269  
  20520495.857   107835935.37549     -1166.465    20520496.156    84028002.24748
      -908.934  
  20868230.014   109663295.79448      1586.827    20868229.991    85451920.73147
      1236.488  
  21549905.699   113245530.95049      3065.952    21549906.915    88243282.53446
      2389.055  
  23794454.755   125040696.38147     -3164.593    23794457.164    97434318.61745
     -2465.926  
  22717373.536   119380600.87248       825.473    22717378.475    93023869.81647
       643.223  
  22938991.645   120545231.89748      2177.851    22938994.559    93931357.12947
      1697.026  
  23826307.433   125208068.17947     -3621.030    23826314.558    97564748.57045
     -2821.589  
  23407472.389   123007096.79248       732.277    23407475.082    95849698.96344
       570.601  
  20598483.710   110265309.533 8      3395.355    20598490.033    85761940.981 8
      2640.832  
  19466622.180   103877626.821 9      -589.344    19466628.066    80793734.610 6
      -458.379  
  21411832.142   114297821.387 8      2808.257    21411840.288    88898346.280 7
      2184.198  
  22913059.669   122483440.851 5     -3889.855    22913068.167    95264908.465 5
     -3025.444  
  22286701.910   119177014.378 6     -2405.508    22286711.492    92693253.398 7
     -1870.952  
  19795382.773   105929090.771 9        78.984    19795388.022    82389317.462 8
        61.472  
 16  3  2  4 52 30.0000000  0 15G29G20G21G18G 5G26G15G25G13R 7R 6R22
                                R 5R20R21
  20230734.546   106313227.09549      -817.261    20230735.442    82841479.40348
      -636.832  
  20527195.210   107871140.74449     -1180.620    20527195.539    84055435.00648
      -919.969  
  20859197.385   109615829.47849      1577.565    20859197.409    85414934.03846
      1229.273  
  21532436.386   113153729.30649      3054.288    21532437.703    88171748.87446
      2379.965  
  23812533.017   125135699.13047     -3169.116    23812535.820    97508346.69245
     -2469.448  
  22712715.727   119356123.60948       806.488    22712720.609    93004796.63046
       628.430  
  22926586.339   120480041.47848      2168.137    22926589.235    93880559.49646
      1689.461  
  23846983.673   125316722.24047     -3622.598    23846990.933    97649413.90144
     -2822.812  
  23403338.197   122985371.74548       715.961    23403341.015    95832770.43444
       557.890  
  20579503.681   110163708.512 9      3378.026    20579510.091    85682918.048 8
      2627.354  
  19470009.547   103895702.459 9      -615.663    19470015.392    80807793.456 6
      -478.851  
  21396056.058   114213607.516 8      2806.077    21396064.207    88832846.665 7
      2182.503  
  22934916.006   122600275.751 5     -3899.358    22934924.169    95355779.997 6
     -3032.840  
  22300225.190   119249327.585 6     -2415.026    22300234.614    92749496.908 7
     -1878.363  
  19794974.054   105926903.503 9        66.815    19794979.415    82387616.258 8
        51.965  
 16  3  2  4 53  0.0000000  0 15G29G20G21G18G 5G26G15G25G13R 7R 6R22
                                R 5R20R21
  20235443.425   106337972.45349      -832.578    20235444.418    82860761.49848
      -648.766  
  20533975.546   107906771.55449     -1195.038    20533975.881    84083199.28048
      -931.203  
  20850218.169   109568643.72549      1567.781    20850218.281    85378165.94747
      1221.647  
  21515034.029   113062279.39849      3042.140    21515035.259    88100489.30446
      2370.500  
  23830638.212   125230843.20147     -3174.020    23830641.456    97582484.84045
     -2473.265  
  22708166.272   119332215.96448       787.155    22708170.911    92986167.31546
       613.363  
  22914236.731   120415144.97548      2157.891    22914239.584    93829990.86447
      1681.472  
  23867669.339   125425425.36647     -3624.308    23867676.643    97734117.45645
     -2824.140  
  23399298.133   122964141.06748       699.179    23399300.986    95816227.12744
       544.815  
  20560621.782   110062632.759 9      3360.187    20560628.059    85604303.671 8
      2613.479  
  19473545.104   103914568.715 9      -642.391    19473550.922    80822467.218 6
      -499.577  
  21380293.313   114129464.628 8      2803.035    21380301.260    88767402.234 8
      2180.137  
  22956825.247   122717393.045 5     -3908.613    22956833.405    95446871.108 5
     -3040.031  
  22313802.666   119321931.674 6     -2425.206    22313812.167    92805966.682 7
     -1886.281  
  19794634.561   105925086.620 9        54.121    19794639.672    82386203.136 8
        42.089  
 16  3  2  4 53 30.0000000  0 15G29G20G21G18G 5G26G15G25G13R 7R 6R22
                                R 5R20R21
  20240237.680   106363166.33849      -847.305    20240238.530    82880393.08748
      -660.241  
  20540836.178   107942824.42149     -1208.828    20540836.408    84111292.42648
      -941.948  
  20841292.142   109521737.07449      1558.917    20841292.220    85341615.34547
      1214.741  
  21497698.627   112971181.74649      3030.660    21497699.923    88029504.22046
      2361.554  
  23848769.742   125326124.47247     -3177.973    23848772.455    97656729.96646
     -2476.343  
  22703724.889   119308876.90548       768.582    22703729.599    92967981.04046
       598.890  
  22901943.155   120350542.67148      2148.476    22901945.981    93779651.49047
      1674.136  
  23888363.446   125534173.03947     -3625.796    23888370.577    97818855.71944
     -2825.305  
  23395351.983   122943404.91048       682.906    23395354.644    95800069.14145
       532.133  
  20541838.307   109962083.565 8      3342.698    20541844.467    85526098.836 8
      2599.883  
  19477228.317   103934222.858 9      -668.265    19477234.125    80837753.786 6
      -519.792  
  21364543.757   114045392.961 8      2800.925    21364552.061    88702013.228 8
      2178.491  
  22978786.273   122834787.469 4     -3917.605    22978794.326    95538177.825 5
     -3047.035  
  22327434.023   119394825.383 6     -2434.698    22327443.833    92862661.702 7
     -1893.659  
  19794364.330   105923640.282 9        41.995    19794369.539    82385078.209 8
        32.660  
 16  3  2  4 54  0.0000000  0 15G29G20G21G18G 5G26G15G25G13R 7R 6R22
                                R 5R20R21
  20245117.985   106388812.57649      -862.167    20245118.877    82900377.16548
      -671.820  
  20547777.369   107979300.68649     -1222.691    20547777.564    84139715.49048
      -952.746  
  20832419.994   109475113.27749      1549.531    20832420.097    85305285.13947
      1207.426  
  21480431.149   112880441.32049      3018.949    21480432.614    87958797.47746
      2352.430  
  23866927.486   125421544.21447     -3182.539    23866930.480    97731082.91946
     -2479.905  
  22699392.412   119286110.23948       749.516    22699397.342    92950240.80046
       584.039  
  22889706.854   120286240.88448      2138.515    22889709.613    93729546.29646
      1666.375  
  23909066.006   125642965.50647     -3626.890    23909073.472    97903628.86545
     -2826.160  
  23391500.914   122923167.58948       666.667    23391503.752    95784299.88044
       519.479  
  20523154.268   109862067.539 9      3325.117    20523160.618    85448308.687 8
      2586.202  
  19481059.440   103954666.681 9      -694.391    19481065.246    80853654.548 6
      -540.093  
  21348808.565   113961398.031 8      2798.602    21348816.929    88636683.905 8
      2176.691  
  23000799.611   122952458.159 5     -3926.531    23000807.104    95629699.430 5
     -3053.972  
  22341120.420   119468012.042 6     -2444.348    22341129.668    92919584.584 7
     -1901.163  
  19794164.132   105922569.262 9        29.612    19794169.403    82384245.199 8
        23.027  
 16  3  2  4 54 30.0000000  0 16G29G20G21G18G 5G26G15G25G16G13R 7R 6
                                R22R 5R20R21
  20250083.127   106414904.38849      -877.258    20250084.036    82920708.44448
      -683.581  
  20554797.522   108016191.77949     -1236.641    20554797.853    84168461.80548
      -963.617  
  20823600.376   109428765.81049      1540.266    20823600.357    85269170.27947
      1200.206  
  21463230.773   112790053.20349      3006.891    21463232.127    87888365.26446
      2343.030  
  23885109.934   125517093.43447     -3187.272    23885112.982    97805536.78846
     -2483.594  
  22695167.756   119263909.43048       730.476    22695172.677    92932941.46946
       569.198  
  22877527.137   120222235.41448      2128.237    22877529.624    93679671.96646
      1658.366  
  23929775.506   125751792.69347     -3628.434    23929782.744    97988429.09044
     -2827.363  
  24273715.210   127559239.00757      2626.581    24273715.276    99396800.03254
      2046.687  
  23387743.776   122903423.88748       649.863    23387746.545    95768915.24644
       506.387  
  20504569.386   109762581.333 8      3307.168    20504575.713    85370930.617 8
      2572.242  
  19485037.001   103975891.802 9      -720.585    19485042.919    80870162.991 6
      -560.457  
  21333086.962   113877474.390 8      2796.206    21333095.119    88571410.020 8
      2174.828  
  23022862.186   123070394.015 4     -3935.179    23022869.567    95721427.260 4
     -3060.694  
  22354860.309   119541484.527 6     -2454.128    22354869.838    92976729.762 7
     -1908.772  
  19794033.148   105921868.182 9        17.070    19794038.540    82383699.918 8
        13.272  
 16  3  2  4 55  0.0000000  0 16G29G20G21G18G 5G26G15G25G16G13R 7R 6
                                R22R 5R20R21
  20255134.135   106441447.70849      -892.398    20255135.097    82941391.53848
      -695.379  
  20561897.297   108053501.44149     -1250.809    20561897.661    84197534.26948
      -974.656  
  20814834.345   109382700.53749      1530.652    20814834.310    85233275.28247
      1192.714  
  21446098.866   112700024.67049      2994.711    21446100.030    87818213.25446
