     2.11           OBSERVATION DATA    M                   RINEX VERSION / TYPE
Leica SpiderQC v4.0.0.49 (Free Version) 23/09/15 00:39:00   PGM / RUN BY / DATE
G. Evans            Office of the Surveyor-General (ACT)    OBSERVER / AGENCY
00AA                                                        MARKER NAME
00AA                                                        MARKER NUMBER
470591              LEICA GX1230GG      5.62                REC # / TYPE / VERS
                    LEIAX1202GG     NONE                    ANT # / TYPE
 -4443543.4448  2670408.5438 -3704662.7979                  APPROX POSITION XYZ
        1.2310        0.0000        0.0000                  ANTENNA: DELTA H/E/N
L1PhaOff:   0.0634  L2PhaOff:   0.0621                      COMMENT
     1     1                                                WAVELENGTH FACT L1/2
     6    C1    L1    D1    P2    L2    D2                  # / TYPES OF OBSERV
  2015     5    13     3    11   10.0000000     GPS         TIME OF FIRST OBS
    16                                                      LEAP SECONDS
    55                                                      # OF SATELLITES
          C1    L1    D1    P2    L2    D2                  COMMENT
                                                            END OF HEADER
 15  5 13  3 11 30.0000000  0 12G18G21G22G27G15G16G14R 8R22R 1R24R23
  19815523.688   104131278.83949      -435.723    19815526.266    81141266.70548
      -339.527  
  20900461.082   109832661.26649     -1668.426    20900463.954    85583904.51847
     -1300.073  
  20947677.402   110080786.07349      1644.426    20947679.338    85777245.36948
      1281.371  
  22190228.670   116610440.53248      2329.745    22190236.341    90865309.96047
      1815.386  
  23000865.328   120870358.23348     -2247.444    23000870.883    94184718.17747
     -1751.265  
  23807853.853   125111115.39546     -1675.855    23807863.165    97489215.57645
     -1305.875  
  23603477.573   124037111.89047      3839.241    23603486.304    96652311.18245
      2991.613  
  20172649.308   108023614.228 9     -2540.527    20172656.004    84018398.550 8
     -1975.969  
  22850148.089   121975634.680 5     -3991.222    22850161.835    94869987.936 6
     -3104.292  
  19701007.668   105313175.289 9      1084.605    19701017.966    81910289.200 6
       843.582  
  20297470.217   108539698.362 7      2707.401    20297477.026    84419789.128 7
      2105.758  
  19343872.724   103476671.549 9     -1091.703    19343882.478    80481897.730 6
      -849.105  
 15  5 13  3 12  0.0000000  0 12G18G21G22G27G15G16G14R 8R22R 1R24R23
  19818048.194   104144545.14849      -448.758    19818050.785    81151604.06448
      -349.683  
  20910015.523   109882869.75249     -1678.772    20910018.281    85623027.95247
     -1308.141  
  20938320.413   110031614.79949      1633.581    20938322.233    85738930.12348
      1272.922  
  22176969.571   116540762.80548      2315.484    22176977.079    90811015.68547
      1804.273  
  23013730.852   120937966.61048     -2259.984    23013736.429    94237399.90747
     -1761.035  
  23817456.485   125161577.34746     -1688.438    23817466.106    97528536.35845
     -1315.671  
  23581566.369   123921967.17647      3836.819    23581575.129    96562588.08445
      2989.730  
  20186915.130   108100006.273 9     -2552.315    20186921.719    84077814.498 8
     -1985.141  
  22872598.732   122095479.705 6     -3999.339    22872613.123    94963200.383 6
     -3110.613  
  19694973.534   105280919.636 9      1065.706    19694984.003    81885201.486 7
       828.883  
  20282322.487   108458696.267 7      2692.375    20282329.156    84356787.549 7
      2094.070  
  19350058.909   103509762.903 9     -1114.483    19350068.596    80507635.392 6
      -866.824  
 15  5 13  3 12 30.0000000  0 12G18G21G22G27G15G16G14R 8R22R 1R24R23
  19820648.254   104158208.58349      -461.933    19820650.838    81162250.87848
      -359.952  
  20919630.487   109933396.29149     -1689.390    20919633.204    85662399.23347
     -1316.413  
  20929026.472   109982774.86949      1622.515    20929028.357    85700873.06548
      1264.297  
  22163793.404   116471521.51848      2300.757    22163800.802    90757061.46847
      1792.796  
  23026670.299   121005963.86448     -2273.030    23026675.901    94290384.66447
     -1771.194  
  23827132.011   125212422.67846     -1700.886    23827141.436    97568155.87245
     -1325.378  
  23559673.589   123806920.33747      3833.508    23559682.615    96472941.30445
      2987.151  
  20201247.906   108176757.013 9     -2564.238    20201254.482    84137509.422 8
     -1994.409  
  22895100.198   122215593.841 6     -4007.976    22895114.382    95056622.143 6
     -3117.323  
  19689046.771   105249237.877 9      1046.511    19689057.089    81860560.127 7
       813.948  
  20267261.234   108378157.635 7      2676.859    20267267.921    84294146.457 7
      2082.000  
  19356375.182   103543550.515 9     -1137.894    19356384.837    80533914.595 6
      -885.030  
 15  5 13  3 13  0.0000000  0 12G18G21G22G27G15G16G14R 8R22R 1R24R23
  19823323.630   104172267.72049      -474.550    19823326.234    81173206.02248
      -369.785  
  20929305.804   109984240.21049     -1699.418    20929308.587    85702017.81147
     -1324.226  
  20919795.441   109934265.85249      1612.093    20919797.384    85663073.87048
      1256.176  
  22150700.663   116402718.82748      2286.784    22150708.034    90703449.02547
      1781.909  
  23039683.333   121074347.69548     -2285.187    23039689.170    94343670.63747
     -1780.671  
  23836880.185   125263647.86447     -1712.999    23836889.568    97608071.37344
     -1334.813  
  23537800.011   123691973.84947      3830.699    23537809.223    96383372.70345
      2984.965  
  20215646.885   108253862.612 9     -2575.343    20215653.570    84197480.365 8
     -2003.051  
  22917651.740   122335974.317 6     -4016.332    22917666.042    95150251.063 6
     -3123.824  
  19683227.216   105218129.083 9      1028.059    19683237.581    81836364.416 7
       799.602  
  20252287.269   108298085.773 8      2662.159    20252293.994    84231868.392 7
      2070.569  
  19362821.470   103578033.528 9     -1160.511    19362831.303    80560734.644 6
      -902.624  
 15  5 13  3 13 30.0000000  0 12G18G21G22G27G15G16G14R 8R22R 1R24R23
  19826073.529   104186718.59749      -488.344    19826076.166    81184466.40948
      -380.531  
  20939040.895   110035398.61449     -1710.663    20939043.754    85741881.44447
     -1332.988  
  20910626.811   109886084.99849      1600.359    20910628.912    85625530.38448
      1247.035  
  22137691.294   116334354.34648      2271.390    22137698.689    90650178.05647
      1769.913  
  23052769.031   121143112.84649     -2298.652    23052774.970    94397253.76847
     -1791.164  
  23846699.761   125315247.58446     -1726.261    23846709.062    97648278.68644
     -1345.151  
  23515945.599   123577127.54148      3826.249    23515954.625    96293882.15045
      2981.491  
  20230111.034   108331317.037 9     -2587.656    20230117.712    84257722.596 8
     -2012.629  
  22940252.556   122456615.413 6     -4026.152    22940266.405    95244082.725 6
     -3131.464  
  19677514.383   105187590.213 9      1008.343    19677524.617    81812611.966 7
       784.261  
  20237400.924   108218481.610 7      2645.582    20237407.639    84169954.115 7
      2057.676  
  19369397.299   103613209.340 9     -1184.145    19369407.013    80588093.551 6
      -921.004  
 15  5 13  3 14  0.0000000  0 12G18G21G22G27G15G16G14R 8R22R 1R24R23
  19828899.074   104201567.02949      -501.726    19828901.814    81196036.59148
      -390.957  
  20948837.209   110086878.86949     -1721.426    20948840.210    85781995.88447
     -1341.375  
  20901522.186   109838239.90549      1589.241    20901524.189    85588248.53348
      1238.371  
  22124767.168   116266437.95448      2256.059    22124774.643    90597256.24947
      1757.969  
  23065928.362   121212264.94048     -2311.805    23065934.358    94451138.38746
     -1801.410  
  23856590.999   125367226.29746     -1739.340    23856600.409    97688781.35143
     -1355.335  
  23494112.197   123462391.89548      3822.391    23494120.783    96204477.81346
      2978.480  
  20244641.099   108409124.466 9     -2599.742    20244647.842    84318239.421 8
     -2022.026  
  22962902.602   122577521.713 7     -4034.723    22962916.476    95338120.575 6
     -3138.128  
  19671909.328   105157628.299 9       988.887    19671919.572    81789308.271 6
       769.132  
  20222604.173   108139356.763 7      2629.397    20222610.843    84108412.607 7
      2045.086  
  19376104.004   103649085.252 9     -1207.672    19376113.671    80615996.963 6
      -939.304  
 15  5 13  3 14 30.0000000  0 12G18G21G22G27G15G16G14R 8R22R 1R24R23
  19831799.718   104216809.73549      -514.617    19831802.480    81207913.98848
      -401.004  
  20958694.327   110138678.22049     -1731.816    20958697.390    85822358.95247
     -1349.472  
  20892480.910   109790728.14549      1578.207    20892482.910    85551226.41148
      1229.773  
  22111928.309   116198969.66648      2241.491    22111935.902    90544683.59248
      1746.616  
  23079160.474   121281799.53048     -2324.160    23079166.583    94505321.07547
     -1811.038  
  23866553.752   125419578.91846     -1751.117    23866562.922    97729575.39545
     -1364.520  
  23472299.759   123347767.23047      3818.813    23472308.477    96115159.97446
      2975.699  
  20259235.925   108487279.067 9     -2610.843    20259242.804    84379026.266 8
     -2030.659  
  22985602.028   122698688.413 7     -4043.292    22985615.695    95432361.042 6
     -3144.796  
  19666411.545   105128239.556 9       970.160    19666421.847    81766450.366 7
       754.569  
  20207897.209   108060712.362 7      2613.546    20207903.889    84047244.797 7
      2032.758  
  19382941.164   103685658.731 9     -1230.676    19382950.726    80644442.937 6
      -957.194  
 15  5 13  3 15  0.0000000  0 12G18G21G22G27G15G16G14R 8R22R 1R24R23
  19834774.358   104232441.35649      -527.894    19834777.078    81220094.44148
      -411.352  
  20968611.358   110190792.25749     -1742.793    20968614.408    85862967.23247
     -1358.022  
  20883502.325   109743545.70849      1566.948    20883504.255    85514460.91548
      1220.999  
  22099174.506   116131948.07648      2226.395    22099182.090    90492459.02348
      1734.851  
  23092464.126   121351710.13348     -2336.668    23092470.439    94559796.73347
     -1820.784  
  23876586.216   125472298.71346     -1763.723    23876595.446    97770655.52746
     -1374.335  
  23450508.271   123233252.65848      3814.862    23450517.028    96025927.91245
      2972.621  
  20273894.238   108565773.541 9     -2622.328    20273901.211    84440077.452 8
     -2039.594  
  23008348.666   122820108.916 7     -4051.930    23008362.224    95526798.841 7
     -3151.519  
  19661020.258   105099420.038 9       951.019    19661030.614    81744035.191 6
       739.684  
  20193280.129   107982548.297 8      2597.331    20193286.629    83986450.592 7
      2020.148  
  19389907.871   103722925.727 9     -1254.133    19389917.605    80673428.303 6
      -975.440  
 15  5 13  3 15 30.0000000  0 12G18G21G22G27G15G16G14R 8R22R 1R24R23
  19837823.263   104248463.58549      -540.538    19837826.053    81232579.26448
      -421.203  
  20978588.788   110243223.84949     -1753.022    20978591.862    85903822.95947
     -1365.996  
  20874587.051   109696695.56649      1556.132    20874588.991    85477954.33748
      1212.569  
  22086506.718   116065378.46148      2211.378    22086514.281    90440586.65048
      1723.151  
  23105839.629   121421997.93948     -2349.245    23105845.899    94614566.35047
     -1830.586  
  23886688.323   125525386.20646     -1775.586    23886697.648    97812022.13744
     -1383.581  
  23428738.689   123118853.92147      3811.280    23428747.396    95936786.09645
      2969.828  
  20288616.013   108644607.448 9     -2633.472    20288622.863    84501392.642 8
     -2048.261  
  23031142.785   122941783.380 7     -4060.140    23031156.342    95621434.219 6
     -3157.898  
  19655735.919   105071171.938 9       931.852    19655746.172    81722064.455 6
       724.773  
  20178754.242   107904871.473 7      2581.082    20178760.627    83926035.354 7
      2007.508  
  19397004.630   103760888.385 9     -1277.069    19397014.457    80702954.747 6
      -993.281  
 15  5 13  3 16  0.0000000  0 11G18G21G22G27G15G16G14R 8R 1R24R23
  19840947.344   104264880.27249      -553.594    19840950.020    81245371.44948
      -431.375  
  20988627.573   110295977.61549     -1763.727    20988630.576    85944929.71847
     -1374.335  
  20865735.914   109650182.71049      1545.054    20865737.864    85441710.57748
      1203.937  
  22073926.333   115999268.15748      2196.176    22073933.881    90389072.17048
      1711.305  
  23119287.370   121492665.73348     -2361.722    23119293.554    94669632.06346
     -1840.308  
  23896861.087   125578842.72547     -1787.749    23896870.078    97853676.34945
     -1393.063  
  23406993.111   123004579.13848      3807.293    23407001.523    95847740.88145
      2966.722  
  20303401.519   108723782.474 9     -2644.660    20303408.336    84562973.146 8
     -2056.960  
  19650559.319   105043499.918 9       912.944    19650569.432    81700541.787 7
       710.070  
  20164321.008   107827690.644 8      2564.542    20164327.352    83866005.870 7
      1994.644  
  19404232.408   103799552.063 9     -1300.250    19404242.156    80733026.432 6
     -1011.327  
 15  5 13  3 16 30.0000000  0 11G18G21G22G27G15G16G14R 8R 1R24R23
  19844144.310   104281680.28449      -566.315    19844146.926    81258462.33648
      -441.288  
  20998725.733   110349043.55549     -1774.059    20998728.720    85986279.74547
     -1382.387  
  20856947.109   109603997.29149      1534.063    20856948.979    85405721.96948
      1195.375  
  22061431.997   115933609.85249      2180.918    22061439.552    90337909.88848
      1699.418  
  23132805.115   121563701.43248     -2373.949    23132811.357    94724984.42346
     -1849.840  
  23907101.740   125632656.19047     -1799.866    23907110.711    97895608.68845
     -1402.503  
  23385269.511   122890421.00348      3803.132    23385278.103    95758786.57845
      2963.480  
  20318248.191   108803285.540 9     -2655.457    20318255.044    84624808.785 8
     -2065.358  
  19645488.371   105016392.955 9       894.129    19645498.457    81679458.609 7
       695.429  
  20149979.215   107750999.600 7      2548.301    20149985.798    83806357.331 7
      1982.012  
  19411589.352   103838906.503 9     -1323.405    19411599.104    80763635.369 6
     -1029.250  
 15  5 13  3 17  0.0000000  0 12G18G21G22G27G15G16G14R 8R 2R 1R24R23
  19847414.379   104298864.39749      -579.042    19847416.924    81271852.52848
      -451.207  
  21008883.609   110402423.52249     -1784.386    21008886.613    86027874.46147
     -1390.433  
  20848221.032   109558141.44649      1523.210    20848222.963    85369990.17348
      1186.917  
  22049024.519   115868408.02049      2165.852    22049032.019    90287103.30148
      1687.676  
  23146392.931   121635104.97748     -2386.038    23146398.946    94780623.45447
     -1859.254  
  23917410.207   125686825.51547     -1811.456    23917418.891    97937818.30445
     -1411.531  
  23363569.192   122776384.68247      3799.387    23363577.769    95669927.18045
      2960.562  
  20333155.807   108883115.209 9     -2666.254    20333162.666    84686898.472 8
     -2073.757  
  23086237.641   123192585.17217      3473.647    23086253.456    95816522.21617
      2701.726  
  19640523.467   104989852.787 9       875.358    19640533.691    81658816.261 6
       680.836  
  20135730.276   107674804.246 8      2531.637    20135736.949    83747094.335 7
      1969.116  
  19419075.638   103878953.084 9     -1346.309    19419085.448    80794782.640 6
     -1047.132  
 15  5 13  3 17 30.0000000  0 12G18G21G22G27G15G16G14R 8R 2R 1R24R23
  19850757.675   104316433.44349      -592.195    19850760.275    81285542.67848
      -461.453  
  21019101.633   110456119.34849     -1795.124    21019104.709    86069715.29447
     -1398.801  
  20839558.170   109512617.67749      1511.737    20839560.076    85334517.13048
      1177.977  
  22036704.706   115803667.24948      2150.159    22036712.116    90236655.98548
      1675.448  
  23160050.728   121706876.87448     -2398.641    23160056.812    94836549.50847
     -1869.074  
  23927786.358   125741350.27747     -1823.452    23927795.082    97980304.91744
     -1420.878  
  23341892.749   122662475.20647      3794.675    23341901.269    95581166.59845
      2956.891  
  20348124.295   108963270.660 9     -2677.461    20348131.197    84749241.532 8
     -2082.473  
  23066735.646   123088517.509 6      3464.121    23066751.476    95735580.792 7
      2694.316  
  19635664.855   104963880.849 9       856.233    19635675.171    81638615.868 7
       665.961  
  20121575.202   107599110.826 8      2514.538    20121581.679    83688221.734 7
      1955.753  
  19426691.837   103919694.142 9     -1369.808    19426701.590    80826470.071 6
     -1065.410  
 15  5 13  3 18  0.0000000  0 12G18G21G22G27G15G16G14R 8R 2R 1R24R23
  19854174.721   104334390.04749      -605.261    19854177.436    81299534.81948
      -471.637  
  21029380.388   110510134.50749     -1805.995    21029383.588    86111804.96247
     -1407.272  
  20830959.022   109467429.03449      1500.504    20830960.940    85299305.23148
      1169.222  
  22024473.742   115739393.43849      2134.359    22024481.138    90186572.54948
      1663.136  
  23173778.634   121779018.25548     -2410.897    23173785.021    94892763.47847
     -1878.625  
  23938230.038   125796231.15647     -1835.706    23938238.975    98023069.00544
     -1430.434  
  23320241.806   122548699.10648      3790.112    23320250.102    95492510.00145
      2953.336  
  20363153.641   109043751.934 9     -2688.262    20363160.449    84811838.023 8
     -2090.875  
  23047285.760   122984732.318 7      3454.594    23047301.538    95654859.078 7
      2686.910  
  19630913.093   104938480.113 9       837.077    19630923.314    81618859.754 6
       651.059  
  20107515.299   107523926.580 8      2497.280    20107521.964    83629745.153 7
      1942.327  
  19434438.436   103961132.787 9     -1393.097    19434448.121    80858700.059 6
     -1083.522  
 15  5 13  3 18 30.0000000  0 12G18G21G22G27G15G16G14R 8R 2R 1R24R23
  19857665.075   104352732.04449      -617.012    19857667.821    81313827.26748
      -480.792  
  21039719.554   110564467.38049     -1815.597    21039722.836    86154142.20248
     -1414.753  
  20822423.367   109422574.64749      1490.210    20822425.405    85264353.79748
      1161.203  
  22012332.048   115675588.03349      2119.895    22012339.294    90136854.10148
      1651.866  
  23187576.328   121851525.91148     -2422.241    23187582.810    94949262.84047
     -1887.465  
  23948740.752   125851464.32847     -1846.254    23948749.667    98066107.59344
     -1438.647  
  23298616.755   122435058.35248      3786.354    23298624.777    95403958.84845
      2950.409  
  20378243.013   109124554.773 9     -2697.949    20378249.861    84874684.611 8
     -2098.410  
  23027889.751   122881230.464 7      3445.922    23027905.311    95574357.693 7
      2680.160  
  19626267.852   104913648.575 9       818.948    19626278.042    81599546.350 7
       636.960  
  20093551.248   107449254.493 8      2481.223    20093557.730    83571666.906 7
      1929.722  
  19442315.128   104003267.560 9     -1415.358    19442324.815    80891471.476 6
     -1100.839  
 15  5 13  3 19  0.0000000  0 12G18G21G22G27G15G16G14R 8R 2R 1R24R23
  19861227.332   104371451.67349      -630.042    19861230.029    81328413.97648
      -490.945  
  21050118.041   110619111.32949     -1826.406    21050121.315    86196721.83147
     -1423.175  
  20813950.281   109378048.27849      1479.051    20813952.281    85229657.96048
      1152.508  
  22000278.622   115612246.91649      2103.762    22000285.838    90087497.43348
      1639.293  
  23201442.144   121924390.98348     -2434.578    23201448.472    95006040.74947
     -1897.078  
  23959316.721   125907040.17447     -1857.832    23959325.555    98109413.24344
     -1447.671  
  23277016.755   122321549.62047      3781.702    23277024.815    95315510.58445
      2946.784  
  20393390.675   109205669.538 9     -2708.750    20393397.574    84937773.801 8
     -2106.809  
  23008545.514   122778006.788 7      3436.519    23008561.271    95494072.651 6
      2672.848  
  19621727.761   104889379.157 9       799.792    19621737.928    81580670.157 6
       622.058  
  20079682.350   107375091.514 8      2463.784    20079688.853    83513984.639 7
      1916.261  
  19450320.682   104046091.498 9     -1438.741    19450330.480    80924778.929 6
     -1119.026  
 15  5 13  3 19 30.0000000  0 12G18G21G22G27G15G16G14R 8R 2R 1R24R23
  19864862.151   104390552.62049      -642.918    19864864.806    81343297.81248
      -500.979  
  21060576.702   110674071.52449     -1837.038    21060579.963    86239547.90047
     -1431.465  
  20805540.534   109333854.82449      1467.746    20805542.509    85195221.53548
      1143.699  
  21988314.842   115549377.57749      2087.965    21988322.099    90038508.39148
      1626.984  
  23215376.633   121997616.74748     -2446.698    23215383.189    95063099.71147
     -1906.526  
  23969958.297   125962961.31247     -1869.722    23969967.437    98152987.90844
     -1456.937  
  23255443.252   122208180.75248      3776.827    23255451.485    95227171.30945
      2942.988  
  20408597.031   109287098.130 9     -2719.171    20408603.917    85001107.091 8
     -2114.914  
  22989255.057   122675068.460 7      3426.590    22989270.389    95414009.548 6
      2665.125  
  19617293.658   104865676.333 9       780.944    19617303.847    81562234.657 6
       607.401  
  20065910.371   107301446.676 8      2446.570    20065916.923    83456705.363 7
      1902.886  
  19458455.944   104089609.292 9     -1462.000    19458465.738    80958626.029 6
     -1137.113  
 15  5 13  3 20  0.0000000  0 12G18G21G22G27G15G16G14R 8R 2R 1R24R23
  19868569.328   104410033.87049      -655.824    19868572.022    81358477.99348
      -511.034  
  21071095.416   110729347.36949     -1848.026    21071098.652    86282619.92447
     -1440.022  
  20797194.114   109289994.33949      1456.280    20797196.138    85161044.57448
      1134.766  
  21976441.448   115486982.31549      2071.737    21976448.632    89989888.74648
      1614.340  
  23229379.259   122071200.82548     -2458.901    23229385.891    95120437.87446
     -1916.030  
  23980665.071   126019224.47948     -1881.292    23980674.122    98196829.08644
     -1465.953  
  23233896.829   122094954.37947      3771.542    23233905.088    95138943.07245
      2938.866  
  20423861.225   109368837.103 8     -2729.722    20423868.215    85064681.788 8
     -2123.121  
  22970018.139   122572416.769 7      3416.730    22970033.518    95334169.358 6
      2657.457  
  19612965.286   104842539.050 9       761.690    19612975.584    81544239.020 7
       592.425  
  20052236.101   107228323.992 8      2428.746    20052242.495    83399832.207 7
      1889.022  
  19466720.743   104133820.111 9     -1485.448    19466730.588    80993012.156 6
     -1155.351  
 15  5 13  3 20 30.0000000  0 12G18G21G22G27G15G16G14R 8R 2R 1R24R23
  19872348.615   104429894.09849      -667.874    19872351.347    81373953.47748
      -520.426  
  21081674.229   110784939.05849     -1857.934    21081677.393    86325938.06947
     -1447.745  
  20788911.192   109246467.00849      1445.754    20788913.089    85127127.21648
      1126.563  
  21964658.825   115425063.80649      2056.504    21964665.884    89941640.61348
      1602.468  
  23243449.852   122145141.35148     -2470.062    23243456.363    95178053.79247
     -1924.726  
  23991436.367   126075827.17548     -1891.933    23991445.428    98240934.81544
     -1474.245  
  23212378.337   121981874.09648      3767.190    23212386.519    95050828.66145
      2935.472  
  20439182.929   109450883.604 8     -2739.413    20439189.844    85128495.675 8
     -2130.660  
  22950835.529   122470053.807 7      3407.711    22950850.623    95254553.756 7
      2650.441  
  19608742.585   104819966.821 9       743.473    19608752.936    81526682.871 6
       578.257  
  20038660.050   107155727.342 8      2411.543    20038666.529    83343368.195 7
      1875.645  
  19475115.051   104178724.000 9     -1507.862    19475124.875    81027937.345 6
     -1172.785  
 15  5 13  3 21  0.0000000  0 12G18G21G22G27G15G16G14R 8R 2R 1R24R23
  19876199.232   104450129.22749      -680.480    19876201.984    81389721.09848
      -530.249  
  21092312.547   110840843.39149     -1868.366    21092315.766    86369499.83547
     -1455.875  
  20780691.085   109203269.90149      1434.711    20780692.808    85093467.16348
      1117.956  
  21952966.592   115363621.39648      2040.440    21952973.769    89893763.48348
      1589.957  
  23257587.167   122219433.60348     -2482.105    23257593.676    95235943.78847
     -1934.113  
  24002271.236   126132763.79648     -1902.992    24002279.981    98285300.78343
     -1482.863  
  23190887.541   121868939.79248      3762.379    23190895.652    94962827.99545
      2931.722  
  20454560.822   109533231.367 9     -2749.551    20454567.848    85192543.864 8
     -2138.542  
  22931706.838   122367978.385 7      3398.035    22931721.751    95175161.803 7
      2642.913  
  19604625.008   104797956.109 9       724.809    19604635.349    81509563.467 7
       563.738  
  20025182.480   107083657.340 8      2393.840    20025188.919    83287313.785 7
      1861.874  
  19483638.214   104224317.142 9     -1530.944    19483648.181    81063398.613 7
     -1190.737  
 15  5 13  3 21 30.0000000  0 12G18G21G22G27G15G16G14R 8R 2R 1R24R23
  19880121.614   104470741.54749      -693.210    19880124.320    81405782.62648
      -540.168  
  21103010.925   110897063.43649     -1879.218    21103014.118    86413307.61147
     -1464.331  
  20772534.368   109160406.40649      1423.265    20772536.228    85060067.08348
      1109.038  
  21941366.114   115302660.90849      2024.140    21941373.336    89846261.86648
      1577.254  
  23271791.557   122294078.51548     -2493.883    23271798.073    95294108.60547
     -1943.289  
  24013169.719   126190034.65048     -1914.479    24013178.583    98329927.20541
     -1491.808  
  23169425.681   121756157.77048      3756.934    23169433.889    94874946.00846
      2927.480  
  20469995.080   109615880.900 9     -2759.909    20470002.209    85256826.777 8
     -2146.601  
  22912632.695   122266195.321 7      3387.835    22912647.897    95095997.260 7
      2634.984  
  19600612.957   104776509.334 9       705.559    19600623.190    81492882.680 7
       548.770  
  20011804.878   107012121.635 8      2375.624    20011811.362    83231674.947 7
      1847.707  
  19492290.906   104270602.931 9     -1554.366    19492300.828    81099398.605 6
     -1208.957  
 15  5 13  3 22  0.0000000  0 12G18G21G22G27G15G16G14R 8R 2R 1R24R23
  19884114.764   104491725.68949      -705.925    19884117.358    81422133.88748
      -550.073  
  21113768.465   110953594.62749     -1889.754    21113771.655    86457357.83147
     -1472.538  
  20764440.331   109117872.14249      1412.104    20764442.198    85026923.53948
      1100.343  
  21929856.984   115242180.18049      2007.871    21929864.179    89799134.07448
      1564.569  
  23286061.843   122369069.62848     -2505.651    23286068.573    95352543.16847
     -1952.461  
  24024130.362   126247632.43647     -1925.765    24024139.264    98374808.36043
     -1500.612  
  23147992.592   121643526.72348      3751.554    23148000.689    94787181.66845
      2923.288  
  20485484.170   109698824.241 8     -2769.831    20485491.287    85321338.208 8
     -2154.315  
  22893612.531   122164701.831 7      3378.065    22893627.688    95017057.925 6
      2627.386  
  19596705.371   104755621.140 9       686.765    19596715.577    81476636.342 7
       534.152  
  19998527.102   106941119.434 8      2357.656    19998533.459    83176451.052 7
      1833.733  
  19501072.146   104317575.988 9     -1577.430    19501082.065    81135933.141 7
     -1226.894  
 15  5 13  3 22 30.0000000  0 12G18G21G22G27G15G16G14R 8R 2R 1R24R23
  19888178.852   104513082.71149      -717.925    19888181.423    81438775.70948
      -559.426  
  21124585.668   111010439.28949     -1899.776    21124588.897    86501652.31847
     -1480.351  
  20756409.325   109075669.48249      1401.492    20756411.306    84994038.37948
      1092.070  
  21918440.012   115182184.17849      1991.917    21918447.163    89752383.99247
      1552.140  
  23300398.106   122444407.22748     -2516.761    23300405.020    95411247.71147
     -1961.116  
  24035152.948   126305556.92147     -1936.050    24035160.920    98419944.23143
     -1508.617  
  23126589.426   121531052.38848      3746.675    23126597.216    94699539.42945
      2919.491  
  20501028.020   109782060.883 8     -2779.211    20501035.212    85386077.762 8
     -2161.613  
  22874647.749   122063502.123 7      3368.625    22874662.911    94938347.088 7
      2620.042  
  19592902.590   104735293.255 9       668.589    19592912.779    81460825.791 6
       520.015  
  19985350.173   106870657.000 8      2339.812    19985356.542    83121646.983 7
      1819.804  
  19509982.164   104365238.292 9     -1599.972    19509992.135    81173003.757 6
     -1244.425  
 15  5 13  3 23  0.0000000  0 12G18G21G22G27G15G16G14R 8R 2R 1R24R23
  19892313.735   104534811.54349      -730.718    19892316.379    81455707.25648
      -569.394  
  21135462.515   111067597.22349     -1910.632    21135465.723    86546190.91147
     -1488.809  
  20748441.586   109033799.10949      1389.917    20748443.585    84961412.14448
      1083.054  
  21907115.735   115122675.57549      1975.316    21907122.930    89706013.71247
      1539.206  
  23314799.949   122520089.92448     -2528.526    23314807.019    95470221.17347
     -1970.284  
  24046237.406   126363805.61047     -1947.171    24046246.700    98465332.55244
     -1517.293  
  23105216.596   121418737.75048      3740.875    23105224.293    94612021.60545
      2914.968  
  20516626.177   109865588.146 9     -2789.121    20516633.385    85451043.352 8
     -2169.319  
  22855738.438   121962598.135 7      3358.183    22855753.663    94859866.222 7
      2611.918  
  19589204.576   104715525.374 9       649.586    19589214.795    81445450.797 7
       505.230  
  19972275.115   106800738.508 8      2321.253    19972281.434    83067265.977 7
      1805.417  
  19519021.116   104413589.905 9     -1623.328    19519030.982    81210610.507 6
     -1262.594  
 15  5 13  3 23 30.0000000  0 13G18G21G22G27G15G16G14R 8R 2R17R 1R24
                                R23
  19896518.920   104556909.90849      -743.104    19896521.594    81472926.75548
      -579.047  
  21146398.710   111125066.88049     -1921.272    21146401.876    86590972.41447
     -1497.101  
  20740536.824   108992259.33449      1378.781    20740538.819    84929043.51248
      1074.375  
  21895884.432   115063655.24349      1958.960    21895891.693    89660023.92248
      1526.465  
  23329266.811   122596113.86048     -2540.070    23329274.065    95529460.52947
     -1979.280  
  24057382.826   126422373.96748     -1957.930    24057392.401    98510969.99144
     -1525.668  
  23083874.350   121306584.43248      3735.577    23083882.305    94524629.51145
      2910.839  
  20532277.792   109949401.398 8     -2798.824    20532284.955    85516231.369 8
     -2176.867  
  22836884.616   121861990.184 7      3348.323    22836899.740    94781615.662 6
      2604.253  
  23141142.069   123398721.58015      4106.633                                  
                
  19585610.790   104696314.715 9       630.781    19585621.029    81430509.207 6
       490.555  
  19959302.079   106731366.387 8      2302.828    19959308.506    83013309.919 7
      1791.089  
  19528188.327   104462628.236 9     -1646.472    19528198.194    81248751.363 6
     -1280.593  
 15  5 13  3 24  0.0000000  0 13G18G21G22G27G15G16G14R 8R 2R17R 1R24
                                R23
  19900793.732   104579374.10249      -754.977    19900796.449    81490431.31948
      -588.297  
  21157393.784   111182846.01049     -1931.245    21157396.843    86635995.05847
     -1504.870  
  20732694.597   108951047.87349      1368.167    20732696.483    84896930.70448
      1066.105  
  21884746.202   115005123.19749      1942.898    21884753.335    89614414.58548
      1513.945  
  23343797.951   122672474.42548     -2550.973    23343805.257    95588962.17247
     -1987.772  
  24068588.051   126481256.88548     -1967.995    24068597.482    98556852.51644
     -1533.512  
  23062562.911   121194593.09448      3730.156    23062571.084    94437363.65746
      2906.620  
  20547981.776   110033495.051 8     -2807.886    20547988.906    85581637.490 8
     -2183.914  
  22818085.855   121761677.267 7      3338.461    22818100.922    94703594.523 6
      2596.577  
  23118047.335   123275558.226 5      4104.219    23118061.400    95881043.16614
      3192.179  
  19582120.793   104677658.492 9       612.625    19582130.853    81415998.840 6
       476.539  
  19946431.533   106662541.979 8      2285.035    19946438.058    82959779.867 7
      1777.250  
  19537483.415   104512350.222 9     -1668.952    19537493.374    81287423.953 6
     -1298.078  
 15  5 13  3 24 30.0000000  0 13G18G21G22G27G15G16G14R 8R 2R17R 1R24
                                R23
  19905139.311   104602209.99349      -767.348    19905141.943    81508225.51748
      -597.938  
  21168448.979   111240941.16849     -1941.854    21168452.048    86681263.96447
     -1513.136  
  20724916.212   108910171.87349      1356.972    20724918.065    84865079.29148
      1057.383  
  21873702.655   114947088.93749      1926.229    21873709.848    89569193.13248
      1500.957  
  23358394.039   122749176.76048     -2562.531    23358400.970    95648730.18047
     -1996.780  
  24079854.225   126540458.71948     -1978.698    24079863.442    98602983.58344
     -1541.855  
  23041284.544   121082774.17748      3724.539    23041292.655    94350232.10945
      2902.237  
  20563738.888   110117873.329 9     -2817.285    20563746.041    85647264.963 8
     -2191.226  
  22799344.273   121661668.532 7      3328.425    22799359.501    94625809.982 6
      2588.777  
  23094968.003   123152489.692 6      4100.602    23094981.401    95785323.435 3
      3189.362  
  19578735.629   104659562.788 9       593.887    19578745.646    81401924.427 7
       461.953  
  19933665.421   106594276.374 8      2266.245    19933671.951    82906684.440 7
      1762.636  
  19546907.536   104562762.665 9     -1691.914    19546917.532    81326633.571 6
     -1315.938  
 15  5 13  3 25  0.0000000  0 12G18G21G22G27G15G14R 8R 2R17R 1R24R23
  19909554.847   104625413.66449      -779.457    19909557.569    81526306.29848
      -607.370  
  21179563.742   111299349.42249     -1952.058    21179566.804    86726776.84447
     -1521.089  
  20717201.078   108869628.63349      1346.043    20717202.835    84833487.18048
      1048.863  
  21862753.579   114889551.84249      1909.895    21862760.826    89524359.09347
      1488.229  
  23373054.168   122826215.85248     -2573.503    23373061.180    95708760.56947
     -2005.332  
  23020038.863   120971127.46548      3718.816    23020046.820    94263234.74746
      2897.781  
  20579547.976   110202530.211 9     -2826.437    20579555.087    85713109.143 8
     -2198.344  
  22780659.185   121561962.635 6      3318.491    22780674.293    94548260.993 6
      2581.046  
  23071906.219   123029517.418 6      4097.761    23071920.898    95689678.592 3
      3187.159  
  19575454.550   104642023.887 9       575.426    19575464.720    81388283.083 7
       447.555  
  19921003.949   106526570.355 8      2247.812    19921010.559    82854024.255 7
      1748.175  
  19556459.977   104613861.598 9     -1714.644    19556469.901    81366377.126 6
     -1333.617  
 15  5 13  3 25 30.0000000  0 12G18G21G22G27G15G14R 8R 2R17R 1R24R23
  19914038.904   104648977.85749      -791.694    19914041.787    81544668.01548
      -616.910  
  21190736.809   111358064.41049     -1962.542    21190739.915    86772528.74147
     -1529.258  
  20709548.106   108829411.83649      1334.922    20709549.760    84802149.43248
      1040.198  
  21851898.468   114832507.97649      1893.179    21851905.600    89479909.41348
      1475.203  
  23387776.991   122903583.71348     -2584.601    23387783.942    95769047.13047
     -2013.979  
  22998825.323   120859650.11948      3712.753    22998833.092    94176369.38846
      2893.059  
  20595407.386   110287456.317 8     -2835.590    20595414.413    85779162.708 8
     -2205.460  
  22762030.232   121462554.879 7      3308.339    22762044.992    94470943.884 6
      2573.147  
  23048862.002   122906638.346 6      4094.015    23048877.394    95594106.285 3
      3184.241  
  19572276.299   104625034.436 9       556.875    19572286.579    81375069.083 7
       433.125  
  19908446.926   106459421.562 8      2228.929    19908453.309    82801797.458 7
      1733.508  
  19566139.442   104665640.020 9     -1737.499    19566149.434    81406649.162 6
     -1351.395  
 15  5 13  3 26  0.0000000  0 12G18G21G22G27G15G14R 8R 2R17R 1R24R23
  19918592.193   104672905.61249      -803.297    19918595.071    81563313.01548
      -625.948  
  21201969.049   111417090.29149     -1972.383    21201972.256    86818522.89447
     -1536.926  
  20701958.121   108789526.19549      1324.382    20701959.657    84771069.72748
      1031.988  
  21841138.476   114775964.17649      1876.890    21841145.526    89435849.36548
      1462.512  
  23402562.648   122981282.55348     -2595.008    23402569.621    95829591.60947
     -2022.090  
  22977645.395   120748349.78348      3707.391    22977653.306    94089641.95645
      2888.875  
  20611317.479   110372653.175 8     -2843.937    20611324.515    85845426.846 8
     -2211.956  
  22743457.990   121363451.307 6      3298.683    22743473.454    94393863.419 7
      2565.645  
  23025836.846   122783860.637 6      4091.051    23025852.181    95498612.772 3
      3181.938  
  19569201.600   104608598.407 9       538.961    19569211.837    81362285.514 7
       419.188  
  19895995.490   106392837.982 8      2210.261    19896001.779    82750010.275 7
      1719.026  
  19575946.692   104718102.036 9     -1759.831    19575956.631    81447452.886 6
     -1368.762  
 15  5 13  3 26 30.0000000  0 12G18G21G22G27G15G14R 8R 2R17R 1R24R23
  19923214.519   104697196.07149      -815.604    19923217.315    81582240.64348
      -635.538  
  21213260.452   111476426.98649     -1983.020    21213263.763    86864759.22547
     -1545.214  
  20694431.099   108749971.55249      1313.129    20694432.656    84740247.95048
      1023.218  
  21830474.090   114719923.04649      1859.780    21830481.163    89392180.99047
      1449.176  
  23417410.882   123059310.26748     -2606.347    23417417.919    95890392.34446
     -2030.925  
  22956499.745   120637229.58048      3700.922    22956508.041    94003054.91445
      2883.836  
  20627277.568   110458117.914 9     -2853.120    20627284.568    85911899.338 8
     -2219.098  
  22724943.470   121264653.684 6      3288.020    22724958.690    94317020.899 6
      2557.347  
  23002831.457   122661187.051 7      4087.570    23002846.457    95403200.217 3
      3179.227  
  19566230.158   104592714.628 9       520.355    19566240.331    81349931.479 7
       404.722  
  19883650.565   106326824.089 8      2190.938    19883656.730    82698666.174 7
      1704.085  
  19585881.497   104771246.671 9     -1782.734    19585891.610    81488787.539 7
     -1386.573  
 15  5 13  3 27  0.0000000  0 12G18G21G22G27G15G14R 8R 2R17R 1R24R23
  19927905.543   104721847.41049      -827.406    19927908.348    81601449.48448
      -644.730  
  21224610.889   111536073.71449     -1993.151    21224614.237    86911237.14447
     -1553.109  
  20686966.994   108710747.41449      1302.214    20686968.551    84709683.71848
      1014.711  
  21819905.775   114664386.05049      1842.855    21819912.846    89348905.46448
      1435.992  
  23432321.188   123137663.89148     -2616.937    23432328.130    95951447.07247
     -2039.179  
  22935388.921   120526291.73748      3694.934    22935397.255    93916609.96046
      2879.168  
  20643286.959   110543846.976 8     -2861.917    20643293.964    85978577.409 8
     -2225.941  
  22706486.258   121166163.030 7      3278.022    22706501.571    94240417.130 6
      2549.574  
  22979846.370   122538622.667 6      4083.956    22979861.660    95307872.677 2
      3176.413  
  19563361.766   104577381.586 9       502.297    19563371.904    81338005.794 7
       390.671  
  19871412.631   106261382.478 8      2171.957    19871418.905    82647767.188 7
      1689.300  
  19595943.654   104825072.269 9     -1805.379    19595953.691    81530651.824 7
     -1404.187  
 15  5 13  3 27 30.0000000  0 13G18G21G22G27G15G19G14R 8R 2R17R 1R24
                                R23
  19932664.894   104746857.97149      -839.437    19932667.645    81620938.22748
      -654.108  
  21236020.118   111596029.49149     -2003.438    21236023.477    86957955.88547
     -1561.125  
  20679565.594   108671853.26349      1291.233    20679567.156    84679376.61948
      1006.156  
  21809433.719   114609354.93049      1826.214    21809440.825    89306024.13548
      1423.022  
  23447292.849   123216341.15748     -2627.835    23447299.962    96012753.94147
     -2047.668  
  24549060.767   129006172.55256      3389.813    24549067.858   100524307.29356
      2641.421  
  22914313.190   120415538.95948      3689.022    22914321.540    93830309.21146
      2874.562  
  20659344.899   110629836.735 8     -2870.444    20659351.789    86045458.247 8
     -2232.573  
  22688087.074   121067980.269 7      3267.785    22688101.963    94164052.831 6
      2541.609  
  22956881.950   122416168.734 6      4080.120    22956897.172    95212630.989 3
      3173.433  
  19560596.165   104562597.707 9       483.875    19560606.269    81326507.234 7
       376.351  
  19859282.334   106196516.611 8      2152.804    19859288.658    82597316.009 7
      1674.402  
  19606132.941   104879577.646 9     -1827.910    19606142.993    81573044.828 6
     -1421.711  
 15  5 13  3 28  0.0000000  0 13G18G21G22G27G15G19G14R 8R 2R17R 1R24
                                R23
  19937488.914   104772208.74049      -851.546    19937491.673    81640692.06748
      -663.546  
  21247484.876   111656276.61249     -2014.046    21247488.166    87004901.65347
     -1569.391  
  20672223.690   108633271.45749      1279.949    20672225.293    84649312.91648
       997.362  
  21799055.001   114554814.24449      1808.964    21799062.059    89263524.94548
      1409.581  
  23462322.400   123295322.07348     -2638.602    23462329.587    96074297.43047
     -2056.062  
  24529725.077   128904563.78447      3382.953    24529731.964   100445131.82245
      2636.070  
  22893269.798   120304956.56248      3682.328    22893278.119    93744141.23246
      2869.347  
  20675447.666   110716066.135 8     -2879.222    20675454.615    86112525.477 8
     -2239.397  
  22669742.215   120970088.868 7      3257.272    22669757.314    94087915.164 7
      2533.437  
  22933936.008   122293812.365 6      4075.832    22933950.732    95117465.219 3
      3170.098  
  19557929.695   104548343.490 9       465.433    19557939.816    81315420.631 6
       361.984  
  19847256.991   106132212.231 8      2133.051    19847263.404    82547301.541 7
      1659.038  
  19616445.671   104934743.892 9     -1850.828    19616455.805    81615951.831 6
     -1439.535  
 15  5 13  3 28 30.0000000  0 13G18G21G22G27G15G19G14R 8R 2R17R 1R24
                                R23
  19942384.664   104797936.11249      -863.065    19942387.426    81660739.35448
      -672.522  
  21259012.129   111716852.45149     -2023.944    21259015.424    87052103.56747
     -1577.105  
  20664948.377   108595039.64649      1269.270    20664949.994    84619521.93948
       989.042  
  21788777.160   114500803.94849      1792.301    21788784.106    89221439.07248
      1396.598  
  23477416.840   123374642.42148     -2648.828    23477423.528    96136105.43847
     -2064.026  
  24510429.693   128803168.38447      3377.176    24510437.035   100366122.56546
      2631.570  
  22872266.871   120194585.34348      3676.297    22872275.021    93658137.80646
      2864.651  
  20691601.729   110802570.563 8     -2887.292    20691608.728    86179806.632 8
     -2245.676  
  22651459.477   120872528.987 7      3247.015    22651474.591    94012035.326 7
      2525.457  
  22911016.027   122171595.029 6      4072.323    22911031.413    95022407.552 3
      3167.371  
  19555369.335   104534657.087 9       447.573    19555379.479    81304775.665 7
       348.112  
  19835344.649   106068511.581 8      2113.988    19835351.058    82497756.641 7
      1644.214  
  19626889.038   104990608.333 9     -1872.917    19626899.207    81659401.886 7
     -1456.719  
 15  5 13  3 29  0.0000000  0 13G18G21G22G27G15G19G14R 8R 2R17R 1R24
                                R23
  19947347.147   104824014.04349      -875.461    19947349.880    81681059.80648
      -682.179  
  21270597.086   111777731.62449     -2034.706    21270600.426    87099541.84047
     -1585.488  
  20657734.831   108557132.48749      1257.801    20657736.536    84589983.93948
       980.104  
  21778595.809   114447301.08849      1774.640    21778602.652    89179748.59648
      1382.836  
  23492570.484   123454274.55048     -2660.102    23492577.064    96198156.35547
     -2072.813  
  24491171.062   128701963.75347      3369.718    24491178.505   100287261.97946
      2625.762  
  22851300.056   120084403.17248      3669.191    22851308.084    93572281.70446
      2859.113  
  20707801.817   110889321.486 8     -2895.973    20707808.909    86247279.501 8
     -2252.426  
  22633234.330   120775276.235 7      3236.379    22633249.210    93936394.386 7
      2517.184  
  22888118.478   122049495.369 6      4067.395    22888133.288    94927441.355 4
      3163.535  
  19552910.179   104521511.523 9       428.871    19552920.180    81294551.341 7
       333.566  
  19823540.967   106005392.428 8      2093.858    19823547.461    82448664.008 7
      1628.558  
  19637457.905   105047144.081 9     -1896.085    19637467.885    81703374.069 6
     -1474.737  
 15  5 13  3 29 30.0000000  0 13G18G21G22G27G15G19G14R 8R 2R17R 1R24
                                R23
  19952377.108   104850446.51049      -887.136    19952379.815    81701656.51848
      -691.276  
  21282240.661   111838919.02549     -2044.788    21282244.037    87147220.29247
     -1593.348  
  20650584.051   108519555.35449      1246.938    20650585.783    84560703.11448
       971.640  
  21768512.548   114394313.25549      1757.441    21768519.368    89138459.42048
      1369.433  
  23507784.022   123534222.16748     -2670.316    23507790.686    96260453.12346
     -2080.770  
  24471950.177   128600958.54247      3363.487    24471957.800   100208556.87446
      2620.905  
  22830370.535   119974418.01848      3662.604    22830378.487    93486579.09746
      2853.976  
  20724048.453   110976321.299 8     -2904.180    20724055.570    86314945.958 8
     -2258.808  
  22615068.045   120678337.898 7      3226.124    22615083.228    93860998.004 7
      2509.206  
  22865244.056   121927520.784 5      4063.832    22865259.403    94832572.531 3
      3160.766  
  19550552.955   104508911.057 9       410.862    19550562.915    81284750.992 7
       319.558  
  19811847.824   105942864.001 8      2074.233    19811854.342    82400030.839 7
      1613.292  
  19648153.057   105104355.904 9     -1918.344    19648163.203    81747872.087 6
     -1492.050  
 15  5 13  3 30  0.0000000  0 13G18G21G22G27G15G19G14R 8R 2R17R 1R24
                                R23
  19957474.533   104877233.43849      -898.964    19957477.215    81722529.42448
      -700.495  
  21293943.056   111900415.62149     -2055.246    21293946.431    87195139.67047
     -1601.496  
  20643496.328   108482309.40049      1235.854    20643498.014    84531680.35448
       963.003  
  21758527.849   114341843.62149      1740.105    21758534.721    89097574.05448
      1355.925  
  23523057.482   123614484.02148     -2680.832    23523064.006    96322994.75447
     -2088.964  
  24452768.228   128500156.68748      3356.550    24452775.846   100130010.22946
      2615.495  
  22809479.355   119864634.90348      3655.824    22809487.476    93401033.96246
      2848.699  
  20740341.194   111063568.093 8     -2912.534    20740348.571    86382804.511 8
     -2265.309  
  22596961.242   120581716.524 7      3215.035    22596976.112    93785848.127 7
      2500.581  
  22842394.004   121805677.399 5      4058.647    22842409.517    94737805.744 4
      3156.737  
  19548297.769   104496855.732 9       392.483    19548307.879    81275374.644 7
       305.351  
  19800266.102   105880931.046 8      2054.191    19800272.333    82351860.820 7
      1597.702  
  19658974.660   105162243.963 9     -1941.145    19658984.735    81792896.070 6
     -1509.781  
 15  5 13  3 30 30.0000000  0 13G18G21G22G27G15G19G14R 8R 2R17R 1R24
                                R23
  19962638.205   104904368.44149      -910.272    19962640.935    81743673.55948
      -709.308  
  21305703.283   111962216.09349     -2064.957    21305706.720    87243295.83647
     -1609.062  
  20636470.635   108445389.53949      1225.270    20636472.411    84502911.68748
       954.754  
  21748641.084   114289889.19849      1723.164    21748648.051    89057090.16848
      1342.726  
  23538389.349   123695052.59048     -2690.617    23538395.932    96385775.36446
     -2096.590  
  24433624.355   128399555.36348      3350.027    24433631.789   100051619.76545
      2610.413  
  22788626.270   119755051.36048      3649.569    22788634.315    93315644.31846
      2843.820  
  20756678.525   111151053.729 8     -2919.956    20756686.235    86450848.839 8
     -2271.081  
  22578913.135   120485408.088 7      3204.972    22578927.739    93710941.647 7
      2492.757  
  22819568.727   121683964.037 5      4055.253    22819584.162    94643140.043 4
      3154.089  
  19546143.295   104485339.085 9       375.023    19546153.385    81266417.252 6
       291.680  
  19788795.227   105819591.875 8      2034.796    19788801.553    82304152.636 7
      1582.620  
  19669921.520   105220801.659 9     -1962.999    19669931.671    81838440.868 6
     -1526.781  
 15  5 13  3 31  0.0000000  0 13G18G21G22G27G15G19G14R 8R 2R17R 1R24
                                R23
  19967868.797   104931855.07449      -922.003    19967871.533    81765091.70048
      -718.448  
  21317522.266   112024325.04749     -2075.336    21317525.589    87291692.38247
     -1617.147  
  20629507.828   108408800.05549      1214.179    20629509.611    84474400.46648
       946.112  
  21738853.825   114238456.93049      1705.714    21738860.676    89017013.12948
      1329.128  
  23553779.990   123775930.48748     -2700.901    23553786.497    96448797.03046
     -2104.602  
  24414520.167   128299162.83148      3343.051    24414527.787    99973392.10246
      2604.984  
  22767812.498   119645674.96948      3642.417    22767820.364    93230416.07546
      2838.245  
  20773060.882   111238780.224 8     -2928.145    20773068.645    86519080.499 8
     -2277.448  
  22560924.720   120389419.144 7      3194.449    22560939.683    93636283.721 7
      2484.574  
  22796769.340   121562389.411 4      4049.698    22796785.244    94548582.363 4
      3149.776  
  19544090.262   104474364.760 9       356.815    19544100.429    81257881.682 7
       277.531  
  19777437.209   105758855.105 8      2014.503    19777443.341    82256912.979 7
      1566.836  
  19680994.264   105280032.996 9     -1985.538    19681004.328    81884509.620 6
     -1544.313  
 15  5 13  3 31 30.0000000  0 13G18G21G22G27G15G19G14R 8R 2R17R 1R24
                                R23
  19973165.422   104959689.08549      -933.616    19973168.118    81786780.52048
      -727.495  
  21329399.436   112086739.09049     -2085.465    21329402.629    87340326.65647
     -1625.042  
  20622607.445   108372538.29849      1203.285    20622609.173    84446144.60448
       937.624  
  21729165.807   114187545.92349      1688.374    21729172.601    88977342.26648
      1315.616  
  23569228.452   123857112.60748     -2711.023    23569234.901    96512055.75746
     -2112.488  
  24395455.783   128198978.94348      3335.897    24395463.136    99895326.94746
      2599.406  
  22747038.161   119536505.93348      3635.379    22747045.995    93145349.41246
      2832.765  
  20789487.176   111326741.222 8     -2935.909    20789494.595    86587494.561 8
     -2283.483  
  22542995.735   120293747.836 7      3183.547    22543010.862    93561872.803 7
      2476.093  
  22773996.376   121440953.346 5      4045.374    22774011.586    94454132.446 4
      3146.414  
  19542137.967   104463928.783 9       338.859    19542148.091    81249764.820 7
       263.559  
  19766191.791   105698721.362 8      1994.301    19766197.906    82210142.345 7
      1551.120  
  19692192.053   105339933.243 9     -2007.862    19692202.210    81931098.628 6
     -1561.675  
 15  5 13  3 32  0.0000000  0 13G18G21G22G27G15G19G14R 8R 2R17R 1R24
                                R23
  19978527.604   104987867.60749      -944.883    19978530.248    81808737.79548
      -736.276  
  21341334.046   112149455.82849     -2095.487    21341337.365    87389196.77847
     -1632.852  
  20615769.023   108336602.36549      1192.559    20615770.789    84418142.63048
       929.266  
  21719576.981   114137156.61449      1670.949    21719583.880    88938077.93448
      1302.039  
  23584734.281   123938595.19748     -2721.008    23584740.728    96575548.58946
     -2120.270  
  24376431.196   128099004.65748      3329.108    24376438.338    99817425.14245
      2594.113  
  22726303.675   119427545.69548      3628.640    22726311.507    93060445.43046
      2827.515  
  20805956.316   111414932.496 8     -2943.289    20805963.799    86656087.713 8
     -2289.230  
  22525126.530   120198394.142 7      3173.382    22525141.588    93487708.964 7
      2468.190  
  22751249.621   121319658.693 5      4041.187    22751264.726    94359792.453 4
      3143.147  
  19540285.882   104454028.075 9       321.316    19540295.994    81242064.293 6
       249.913  
  19755059.509   105639192.547 8      1974.437    19755065.789    82163842.204 7
      1535.671  
  19703514.383   105400499.760 9     -2029.901    19703524.459    81978205.855 6
     -1578.816  
 15  5 13  3 32 30.0000000  0 13G18G21G22G27G15G19G14R 8R 2R17R 1R24
                                R23
  19983955.939   105016393.66649      -956.656    19983958.551    81830965.88248
      -745.448  
  21353327.012   112212479.16349     -2105.800    21353330.377    87438305.81347
     -1640.886  
  20608993.389   108300996.23349      1181.417    20608995.103    84390397.64048
       920.585  
  21710088.610   114087295.20449      1653.250    21710095.580    88899224.96148
      1288.245  
  23600297.587   124020380.32848     -2731.215    23600303.915    96639277.20846
     -2128.222  
  24357447.729   127999246.86548      3321.784    24357454.741    99739691.92444
      2588.405  
  22705610.269   119318801.23748      3621.315    22705618.060    92975709.60146
      2821.805  
  20822468.502   111503354.974 8     -2951.296    20822476.001    86724860.704 8
     -2295.457  
  22507317.702   120103363.543 7      3162.323    22507332.597    93413796.414 7
      2459.590  
  22728530.971   121198512.536 5      4035.612    22728545.483    94265567.907 5
      3138.815  
  19538534.461   104444665.756 9       303.199    19538544.492    81234782.504 6
       235.805  
  19744041.806   105580276.342 8      1953.688    19744048.137    82118018.544 7
      1519.535  
  19714961.731   105461735.352 9     -2052.343    19714971.917    82025833.467 6
     -1596.269  
 15  5 13  3 33  0.0000000  0 13G18G21G22G27G15G19G14R 8R 2R17R 1R24
                                R23
  19989449.704   105045263.87949      -967.965    19989452.452    81853462.14548
      -754.261  
  21365377.895   112275806.73349     -2116.003    21365381.184    87487651.91747
     -1648.840  
  20602280.080   108265717.77249      1170.530    20602281.838    84362907.97348
       912.102  
  21700700.686   114037961.48549      1635.745    21700707.646    88860783.16148
      1274.604  
  23615917.644   124102463.56048     -2741.047    23615923.957    96703238.10446
     -2135.882  
  24338505.545   127899706.32647      3314.397    24338512.890    99662128.05345
      2582.656  
  22684958.050   119210273.46748      3613.926    22684965.762    92891142.61046
      2816.046  
  20839023.041   111592003.591 8     -2958.625    20839030.550    86793809.565 8
     -2301.155  
  22489569.291   120008655.152 7      3151.734    22489584.178    93340134.450 7
      2451.351  
  22705840.447   121077516.918 6      4030.727    22705854.828    94171460.523 5
      3135.016  
  19536883.013   104435837.913 9       285.476    19536893.119    81227916.422 7
       222.035  
  19733138.891   105521973.932 8      1933.116    19733145.314    82072672.284 7
      1503.535  
  19726533.584   105523636.713 9     -2074.465    19726543.794    82073978.888 6
     -1613.479  
 15  5 13  3 33 30.0000000  0 13G18G21G22G27G15G19G14R 8R 2R17R 1R24
                                R23
  19995009.464   105074480.70749      -979.343    19995012.253    81876228.50548
      -763.129  
  21377487.304   112339442.10649     -2125.840    21377490.733    87537237.86947
     -1656.504  
  20595629.722   108230770.34449      1159.745    20595631.513    84335676.25448
       903.699  
  21691414.214   113989161.33949      1617.980    21691421.165    88822757.13548
      1260.766  
  23631594.411   124184846.31048     -2750.746    23631601.035    96767432.36746
     -2143.440  
  24319605.784   127800389.25848      3307.319    24319613.692    99584738.43846
      2577.136  
  22664348.234   119101969.09248      3606.664    22664355.805    92806749.68646
      2810.391  
  20855619.904   111680879.195 8     -2965.983    20855627.468    86862934.985 8
     -2306.879  
